query_id	query_text	gold_lat	gold_lon	quality_class	assigned_country	script_family	query_form	osm_kind	osm_id	name
in-tamil-canonical-0000000001	கண்ணன் நகர்	12.9699068	80.18931640000001	noisy	IN	Tamil	canonical	node	280510383	கண்ணன் நகர்
de-tamil-canonical-0000000002	நாகம்மா புடவையகம், Willmanndamm 17, Berlin 10827	52.4902201	13.361547600000002	clean	DE	Tamil	canonical	node	1713177124	நாகம்மா புடவையகம்
in-tamil-canonical-0000000003	மேட்டுப்பாளையம் உழவர் சந்தை, Mettupalayam 641301	11.3010351	76.93741700000001	noisy	IN	Tamil	canonical	node	2320542332	மேட்டுப்பாளையம் உழவர் சந்தை
in-tamil-canonical-0000000004	அம்பிகா சினிமாஸ், Plot no 11, 80 Feet Rd, Vaigai Colony, Madurai, Tamil Nadu 625020 ,  625020	9.9184891	78.14823290000001	noisy	IN	Tamil	canonical	node	2430078677	அம்பிகா சினிமாஸ்
in-tamil-canonical-0000000005	இந்தியன் ஆயில், Lock No 45, Mellur, Tallakulam, Madurai, Tamil Nadu. ,  625002	9.9355411	78.13659390000001	noisy	IN	Tamil	canonical	node	2517281258	இந்தியன் ஆயில்
in-tamil-canonical-0000000006	குஞ்சுபலிகாடு	11.4363451	77.8655177	noisy	IN	Tamil	canonical	node	3114727956	குஞ்சுபலிகாடு
in-tamil-canonical-0000000007	வேங்கிபாளையம்	11.4232987	77.85752980000001	noisy	IN	Tamil	canonical	node	3145427782	வேங்கிபாளையம்
in-tamil-canonical-0000000008	இரத்தினசாமி உதவி பெறும் நடுநிலை பள்ளி, Big Devangar Street , புவனகிரி 608001	11.4427423	79.6538799	noisy	IN	Tamil	canonical	node	3206045719	இரத்தினசாமி உதவி பெறும் நடுநிலை பள்ளி
in-tamil-canonical-0000000009	சின்ன மலை Little Mount Metro, Anna Salai (Mount Road) , Chennai 600015	13.015576800000002	80.22503300000001	noisy	IN	Tamil	canonical	node	3264883515	சின்ன மலை Little Mount Metro
in-tamil-canonical-0000000010	தேனீ அருங்காட்சியகம், ஊட்டி, Club Road 176/A, Ooty 643001	11.4131715	76.6968956	clean	IN	Tamil	canonical	node	3725644175	தேனீ அருங்காட்சியகம், ஊட்டி
in-tamil-canonical-0000000011	சண்முகம் அமிர்தா இல்லம், north oorani st 1142, k.nerpugappatti 630102	10.148003000000001	78.7736031	clean	IN	Tamil	canonical	node	4459315311	சண்முகம் அமிர்தா இல்லம்
in-tamil-canonical-0000000012	அமிரதம் ஸ்வீட் ஹோம், No.239, LIG Main Road, Anna Nagar, Sathamangalam, Madurai, Tamil Nadu 625020 239,  625020	9.9212247	78.148381	noisy	IN	Tamil	canonical	node	4881692069	அமிரதம் ஸ்வீட் ஹோம்
in-tamil-canonical-0000000013	Joint Director of Agriculture Complex விவசாயம் காம்ப்ளக்ஸ் இணை இயக்குநர், Gundu Salai Rd, Dhanalakshmi Nagar Extension , Cuddalore 607001	11.7661668	79.7516782	noisy	IN	Tamil	canonical	node	5224226188	Joint Director of Agriculture Complex விவசாயம் காம்ப்ளக்ஸ் இணை இயக்குநர்
in-tamil-canonical-0000000014	தேவி கருமாரியம்மன் கோவில், Thirumangalam, Chennai	13.084021000000002	80.1984073	noisy	IN	Tamil	canonical	node	5227394520	தேவி கருமாரியம்மன் கோவில்
in-tamil-canonical-0000000015	அகத்தி இயற்கை சந்தை, mes first street	12.9184894	80.1158905	noisy	IN	Tamil	canonical	node	5246751922	அகத்தி இயற்கை சந்தை
in-tamil-canonical-0000000016	வாசவி மஹால், சாவடி பஜார் , Ayyampettai 614201	10.8946562	79.18715730000001	noisy	IN	Tamil	canonical	node	5287634595	வாசவி மஹால்
in-tamil-canonical-0000000017	செ.தெ நாயகம் தியாகராய நகர் மேனிலைப் பள்ளி, வெங்கட் நாராயணா தெரு	13.0361057	80.2365642	noisy	IN	Tamil	canonical	node	5320053509	செ.தெ நாயகம் தியாகராய நகர் மேனிலைப் பள்ளி
in-tamil-canonical-0000000018	Sivan koil (சிவன் கோயில்), sivan koil st	11.2989446	79.55345840000001	noisy	IN	Tamil	canonical	node	5336877633	Sivan koil (சிவன் கோயில்)
in-tamil-canonical-0000000019	அரசு ஆண்கள் மேல்நிலைப் பள்ளி, Sankagiri Road ,  637211	11.385043900000001	77.89482790000001	noisy	IN	Tamil	canonical	node	5340680821	அரசு ஆண்கள் மேல்நிலைப் பள்ளி
in-tamil-canonical-0000000020	வீரத்தின் அடையாளம் புதுப்பட்டி	10.008072400000001	78.4507083	noisy	IN	Tamil	canonical	node	5434642693	வீரத்தின் அடையாளம் புதுப்பட்டி
in-tamil-canonical-0000000021	குண்டூர் சுப்பையா பிள்ளை தி.நகர் பெண்கள் மேல் நிலைப்பள்ளி, பகவந்தம் தெரு	13.0358756	80.23743950000001	noisy	IN	Tamil	canonical	node	5484076358	குண்டூர் சுப்பையா பிள்ளை தி.நகர் பெண்கள் மேல் நிலைப்பள்ளி
in-tamil-canonical-0000000022	கட்டணமில்லா கழிப்பிடம், 61st Street, Ashok Nagar	13.032666	80.2171155	noisy	IN	Tamil	canonical	node	5498746021	கட்டணமில்லா கழிப்பிடம்
in-tamil-canonical-0000000023	உபகார மாதா ஆலயம், navamudalur , Mudalur 628702	8.417445800000001	77.9457014	noisy	IN	Tamil	canonical	node	5502394124	உபகார மாதா ஆலயம்
in-tamil-canonical-0000000024	ஹிபா சிறப்பு மருத்துவமனை, Veeraraghava Street (Big St) 25,53,  600005	13.0615207	80.27574700000001	noisy	IN	Tamil	canonical	node	5547728024	ஹிபா சிறப்பு மருத்துவமனை
in-tamil-canonical-0000000025	பாரதி அறிவுடைமை பொது நூலகம், செம்மஞ்சேரி	12.862919100000001	80.2145177	noisy	IN	Tamil	canonical	node	5715499085	பாரதி அறிவுடைமை பொது நூலகம்
in-tamil-canonical-0000000026	எழுச்சி தமிழர் தானி ஓட்டுநர் நலச் சங்கம், Roman Rolan street	11.9257152	79.83295150000001	noisy	IN	Tamil	canonical	node	5762145081	எழுச்சி தமிழர் தானி ஓட்டுநர் நலச் சங்கம்
in-tamil-canonical-0000000027	அம்மாபேட்டை கல்வி அறக்கட்டளை, ஆண்டி கோனார் இல்லம் (மேல் மாடி) , Kallakurichi	11.790370800000002	78.8644154	noisy	IN	Tamil	canonical	node	5775337273	அம்மாபேட்டை கல்வி அறக்கட்டளை
in-tamil-canonical-0000000028	ரிலையன்ஸ் ட்ரெண்ட்ஸ், Velachery Tambaram Road	12.9287702	80.20291230000001	noisy	IN	Tamil	canonical	node	5802044855	ரிலையன்ஸ் ட்ரெண்ட்ஸ்
in-tamil-canonical-0000000029	ஃபிட் ராக் அரினா - பள்ளிக்கரணை, Perumal Avenue	12.923390600000001	80.2082448	noisy	IN	Tamil	canonical	node	5802051053	ஃபிட் ராக் அரினா - பள்ளிக்கரணை
in-tamil-canonical-0000000030	தமிழ்நாடு ராஜ் பவன், Sardar Patel Road ,  600022	13.005915600000002	80.2265244	noisy	IN	Tamil	canonical	node	5851464592	தமிழ்நாடு ராஜ் பவன்
in-tamil-canonical-0000000031	சட்ட பஞ்சாயத்து இயக்கம், Appucoloney,thiruvamayur H42/1,  600041	12.987604500000002	80.2542499	noisy	IN	Tamil	canonical	node	5892458785	சட்ட பஞ்சாயத்து இயக்கம்
in-tamil-canonical-0000000032	நீயு கோல்டன் பேக்கரி & இனிப்பு, Kanchipuram - Vandavasi Road	12.505822400000001	79.6037671	noisy	IN	Tamil	canonical	node	5910777885	நீயு கோல்டன் பேக்கரி & இனிப்பு
in-tamil-canonical-0000000033	அக்பர் மருந்து மில், Bazar street,mylopore	13.034794100000001	80.27374900000001	noisy	IN	Tamil	canonical	node	5918435985	அக்பர் மருந்து மில்
in-tamil-canonical-0000000034	சரவணா ஸ்டோர், market road, Shanmugam Road 20	12.92651	80.1154296	noisy	IN	Tamil	canonical	node	5989898292	சரவணா ஸ்டோர்
in-tamil-canonical-0000000035	சங்கர குட்றாலிங்கம், Thiruvalluvar Street 25/09	12.926682300000001	80.1312589	noisy	IN	Tamil	canonical	node	5989898293	சங்கர குட்றாலிங்கம்
in-tamil-canonical-0000000036	வி.பி.சிந்தன் இல்லம் (CITU Perungudi Office), Burma Colony, Perungudi, Chennai	12.9593035	80.2474059	noisy	IN	Tamil	canonical	node	6010166735	வி.பி.சிந்தன் இல்லம் (CITU Perungudi Office)
in-tamil-canonical-0000000037	பயணவழி உணவகம், Grand Southern Trunk Road	12.6448611	79.939902	noisy	IN	Tamil	canonical	node	6031421185	பயணவழி உணவகம்
in-tamil-canonical-0000000038	தமிழ்நாடு அரசு இசேவை மையம், Chengalvarayan Street	13.0537796	80.2743911	noisy	IN	Tamil	canonical	node	6050605286	தமிழ்நாடு அரசு இசேவை மையம்
in-tamil-canonical-0000000039	மருதமலை பேருந்து நிலையம், coimbatore 641046	11.043498900000001	76.86391900000001	noisy	IN	Tamil	canonical	node	6143848628	மருதமலை பேருந்து நிலையம்
in-tamil-canonical-0000000040	பியுர் சினிமா, Vikram studio,7 W sivan koil st,vadapalni,chennai	13.049054700000001	80.2099961	noisy	IN	Tamil	canonical	node	6153155685	பியுர் சினிமா
in-tamil-canonical-0000000041	மலையாண்டி விலாஸ், Trichy Madurai Highway	10.751614100000001	78.6500039	noisy	IN	Tamil	canonical	node	6202885595	மலையாண்டி விலாஸ்
in-tamil-canonical-0000000042	அம்மி தற்சார்பு சந்தை, Narashiman kovil opp 15	10.9913936	76.9607627	noisy	IN	Tamil	canonical	node	6357493685	அம்மி தற்சார்பு சந்தை
in-tamil-canonical-0000000043	ஸ்ரீ கிருஷ்ணா டிபன் சென்டர், பாரதி வீதி 504	11.9285204	79.8258484	noisy	IN	Tamil	canonical	node	6499865785	ஸ்ரீ கிருஷ்ணா டிபன் சென்டர்
in-tamil-canonical-0000000044	கண்டோன்மெண்ட்	10.8004792	78.6787267	noisy	IN	Tamil	canonical	node	6507644587	கண்டோன்மெண்ட்
in-tamil-canonical-0000000045	திருமங்கலம், Jawaharlal Nehru Road, Anna Nagar West, Thirumangalam	13.090667400000001	80.1984558	noisy	IN	Tamil	canonical	node	6518463385	திருமங்கலம்
in-tamil-canonical-0000000046	ரஹ்மத் பதிப்பகம், CIT Colony 2nd Main Road	13.042840400000001	80.2601928	noisy	IN	Tamil	canonical	node	6779400485	ரஹ்மத் பதிப்பகம்
in-tamil-canonical-0000000047	குவிகம், Thanikachalam Road	13.035433000000001	80.23857770000001	noisy	IN	Tamil	canonical	node	6790108586	குவிகம்
in-tamil-canonical-0000000048	எஸ் பி மருத்துவமனை, HIG 34, 80 Feet Rd, New LIG Colony, Anna Nagar, Madurai, Tamil Nadu 625020 ,  625020	9.9224443	78.1489693	noisy	IN	Tamil	canonical	node	6936708995	எஸ் பி மருத்துவமனை
in-tamil-canonical-0000000049	சென்னை மெரினா கலங்கரை விளக்கம், Marina Beach Road	13.039631	80.2794168	noisy	IN	Tamil	canonical	node	7016742491	சென்னை மெரினா கலங்கரை விளக்கம்
in-tamil-canonical-0000000050	பில்ஸ் பிஸ்ட்ரோ, 444, 9th Main Rd, Managiri, Madurai, Tamil Nadu 625020 444,  625020	9.932691400000001	78.1480993	noisy	IN	Tamil	canonical	node	7020233396	பில்ஸ் பிஸ்ட்ரோ
in-tamil-canonical-0000000051	புத்தூர் பகுதி நேர நியாய விலைக் கடை, பெருந்துறை சாலை	11.2639627	77.63172150000001	noisy	IN	Tamil	canonical	node	7170271857	புத்தூர் பகுதி நேர நியாய விலைக் கடை
in-tamil-canonical-0000000052	Thanthai Periyar Memorial House தந்தை பெரியார் நினைவு இல்லம், Periyar Street	11.3396468	77.731671	noisy	IN	Tamil	canonical	node	7171213567	Thanthai Periyar Memorial House தந்தை பெரியார் நினைவு இல்லம்
in-tamil-canonical-0000000053	புத்தூர் பால் உற்பத்தியாளர்கள் கூட்டுறவு சங்கம், Perunthurai road	11.2639578	77.63164660000001	noisy	IN	Tamil	canonical	node	7178583638	புத்தூர் பால் உற்பத்தியாளர்கள் கூட்டுறவு சங்கம்
in-tamil-canonical-0000000054	ஸ்ரீ லக்ஷ்மி நரசிம்ஹ கோயில், Mariamman Koil street Near Narasimmar Koil singirikoil, Singirikoil, Thavalakuppam, Tamil Nadu 112	11.865383600000001	79.78112510000001	noisy	IN	Tamil	canonical	node	7202915724	ஸ்ரீ லக்ஷ்மி நரசிம்ஹ கோயில்
in-tamil-canonical-0000000055	அமுதம் பல்பொருள் சிறப்பு அங்காடி(சுய சேவை பிரிவு), VM St 430	13.047425800000001	80.26861500000001	noisy	IN	Tamil	canonical	node	7953366985	அமுதம் பல்பொருள் சிறப்பு அங்காடி(சுய சேவை பிரிவு)
in-tamil-canonical-0000000056	கிராம நிர்வாக அலுவலர் தண்டலம், Chennai - Bangalore	13.0144791	80.0035929	noisy	IN	Tamil	canonical	node	7953367185	கிராம நிர்வாக அலுவலர் தண்டலம்
in-tamil-canonical-0000000057	உழைப்பாளி மருத்துவமனை, Arunachalam St	13.0487242	80.2036274	noisy	IN	Tamil	canonical	node	8108467017	உழைப்பாளி மருத்துவமனை
in-tamil-canonical-0000000058	புதுச்சேரி பாப்ஸ்கோ நியாயவிலை கடை எண் -202, poongavanam Chettiar street	12.029167000000001	79.86390580000001	noisy	IN	Tamil	canonical	node	8446025272	புதுச்சேரி பாப்ஸ்கோ நியாயவிலை கடை எண் -202
in-tamil-canonical-0000000059	அங்கன்வாடி, பூங்கவனம் செட்டியார் வீதி	12.028535900000001	79.86555010000001	noisy	IN	Tamil	canonical	node	8446064284	அங்கன்வாடி
in-tamil-canonical-0000000060	சாய்பாபா கோயில், தேரோடும் வீதி	12.0312344	79.8660431	noisy	IN	Tamil	canonical	node	8446067053	சாய்பாபா கோயில்
in-tamil-canonical-0000000061	அருள்மிகு காந்தாரி அம்மன் ஆலயம், காந்தாரி அம்மன் கோவில் வீதி	12.0289514	79.86655540000001	noisy	IN	Tamil	canonical	node	8446071654	அருள்மிகு காந்தாரி அம்மன் ஆலயம்
in-tamil-canonical-0000000062	புதுவை அரசு வருவாய் மற்றும் பேரிடர் மேலாண்மை துறை காலப்பட்டு கிராமம் நிர்வாக அலுவலர்கள் அலுவலகம், ettat civil street	12.030357100000002	79.86562190000001	noisy	IN	Tamil	canonical	node	8446075833	புதுவை அரசு வருவாய் மற்றும் பேரிடர் மேலாண்மை துறை காலப்பட்டு கிராமம் நிர்வாக அலுவலர்கள் அலுவலகம்
in-tamil-canonical-0000000063	Kalapet PACCS limited, காலாப்பட்டு தொடக்க வேளாண்மை கூட்டுறவு கடன் சங்கம் லிட். பி.96, தேரோடும் வீதி	12.031153900000001	79.86601780000001	noisy	IN	Tamil	canonical	node	8446077568	Kalapet PACCS limited, காலாப்பட்டு தொடக்க வேளாண்மை கூட்டுறவு கடன் சங்கம் லிட். பி.96
in-tamil-canonical-0000000064	கால்நடை சிறு மருந்தகம் புதிய கட்டிடம், வாணிதாசன் வீதி	12.032210300000001	79.86630120000001	noisy	IN	Tamil	canonical	node	8446094019	கால்நடை சிறு மருந்தகம் புதிய கட்டிடம்
in-tamil-canonical-0000000065	காலாபட் அஞ்சல் அலுவலகம், பெருமாள் கோவில் தெரு	12.0317938	79.86659300000001	noisy	IN	Tamil	canonical	node	8446097127	காலாபட் அஞ்சல் அலுவலகம்
in-tamil-canonical-0000000066	சுனாமி நகர்	9.0752512	78.35095170000001	noisy	IN	Tamil	canonical	node	9088574925	சுனாமி நகர்
in-tamil-canonical-0000000067	தமிழ்நேரம், சுந்தரர் தெரு 28, வேலூர் 632006	12.952715900000001	79.13595090000001	clean	IN	Tamil	canonical	node	9091390720	தமிழ்நேரம்
in-tamil-canonical-0000000068	புத்தூர்	10.814917300000001	78.6774838	noisy	IN	Tamil	canonical	node	9152559640	புத்தூர்
in-tamil-canonical-0000000069	அமிசியா கவுண்டணூர்	10.5444289	77.0666913	noisy	IN	Tamil	canonical	node	9236983934	அமிசியா கவுண்டணூர்
in-tamil-canonical-0000000070	நல்லூர்	10.566098	77.0787227	noisy	IN	Tamil	canonical	node	9236983986	நல்லூர்
in-tamil-canonical-0000000071	பொன்னாண்டா கவுண்டணூர்	10.5696597	77.0631907	noisy	IN	Tamil	canonical	node	9236984000	பொன்னாண்டா கவுண்டணூர்
in-tamil-canonical-0000000072	பருத்தியார்	10.5378024	77.0705145	noisy	IN	Tamil	canonical	node	9237456657	பருத்தியார்
in-tamil-canonical-0000000073	ஆண்டிகூட	10.5336692	77.0769661	noisy	IN	Tamil	canonical	node	9237456688	ஆண்டிகூட
in-tamil-canonical-0000000074	இராவணபுரம்	10.5356599	77.09483440000001	noisy	IN	Tamil	canonical	node	9237456717	இராவணபுரம்
in-tamil-canonical-0000000075	C.S.I Church Chekkittavilai சி.எஸ்.ஐ சர்ச் செக்கிட்டவிலை, Chekkittavilai ,  629169	8.2741355	77.25374380000001	noisy	IN	Tamil	canonical	node	9339677762	C.S.I Church Chekkittavilai சி.எஸ்.ஐ சர்ச் செக்கிட்டவிலை
in-tamil-canonical-0000000076	Sacred Heart Church சேக்ரெட் ஹார்ட் சர்ச், Palliyadi , Marthandam 629169	8.2719742	77.24993380000001	noisy	IN	Tamil	canonical	node	9342794115	Sacred Heart Church சேக்ரெட் ஹார்ட் சர்ச்
in-tamil-canonical-0000000077	மனித நேய மக்கள் கட்சி தலைமை அலுவலகம், Vadamaracoir Street 7	13.098322000000001	80.29171140000001	noisy	IN	Tamil	canonical	node	9360052318	மனித நேய மக்கள் கட்சி தலைமை அலுவலகம்
in-tamil-canonical-0000000078	மந்தை கருப்பு கோவில், புதுப்பட்டி, Sri Kakana Muthaiya Kovil Road , வீரத்தின் அடையாளம் புதுப்பட்டி 625109	10.0076193	78.4515191	noisy	IN	Tamil	canonical	node	9381281247	மந்தை கருப்பு கோவில், புதுப்பட்டி
in-tamil-canonical-0000000079	பாலவிநாயகர் கோவில், புதுப்பட்டி, வீரத்தின் அடையாளம் புதுப்பட்டி , Madurai 625109	10.0079724	78.4515744	noisy	IN	Tamil	canonical	node	9381295218	பாலவிநாயகர் கோவில், புதுப்பட்டி
in-tamil-canonical-0000000080	பாலிக்காடு,  637304	11.415022	77.8408873	noisy	IN	Tamil	canonical	node	9427175500	பாலிக்காடு
in-tamil-canonical-0000000081	கருவேப்பம்பட்டி பிரிவு	11.404155300000001	77.8818991	noisy	IN	Tamil	canonical	node	9430569093	கருவேப்பம்பட்டி பிரிவு
in-tamil-canonical-0000000082	அரசு பெண்கள் மேல்நிலைப் பள்ளி, Sankagiri Road ,  637211	11.3844247	77.8949053	noisy	IN	Tamil	canonical	node	9430679863	அரசு பெண்கள் மேல்நிலைப் பள்ளி
in-tamil-canonical-0000000083	கடப்பங்காடு	11.405900200000001	77.8580745	noisy	IN	Tamil	canonical	node	9430679875	கடப்பங்காடு
in-tamil-canonical-0000000084	ஶ்ரீ ஜானகி ராம், Alagarkoil, East Coast Road, Chinna Chokikulam. ,  625002	9.9357051	78.1361966	noisy	IN	Tamil	canonical	node	9776942919	ஶ்ரீ ஜானகி ராம்
in-tamil-canonical-0000000085	ஹெச்பி பெட்ரோல் பங்க், Melur Main Rd, Mattuthavani, Industrial Estate, Madurai, Tamil Nadu. ,  625007	9.9444531	78.1541466	noisy	IN	Tamil	canonical	node	9859758917	ஹெச்பி பெட்ரோல் பங்க்
in-tamil-canonical-0000000086	பேஷன் ஹேர் ஸ்டைலர் சலூன், Mannarpuram	10.7847419	78.6922581	noisy	IN	Tamil	canonical	node	10203814917	பேஷன் ஹேர் ஸ்டைலர் சலூன்
in-tamil-canonical-0000000087	மாற்று திறனாளிகளுக்கான மரப்பாதை, Marina Beach Road	13.0490081	80.28115070000001	noisy	IN	Tamil	canonical	node	10287777410	மாற்று திறனாளிகளுக்கான மரப்பாதை
in-tamil-canonical-0000000088	வக்ஃப் இல்லம், Jafer Serang Street	13.098002800000001	80.29233590000001	noisy	IN	Tamil	canonical	node	10687917005	வக்ஃப் இல்லம்
in-tamil-canonical-0000000089	அவுட்லைன்ஸ் சலோன் & டாட்டூஸ், 199, First floor (Venus Electranic, Kamarajar Salai, Tamil Nadu 625009 199,  625009	9.9166688	78.1346358	noisy	IN	Tamil	canonical	node	10711690606	அவுட்லைன்ஸ் சலோன் & டாட்டூஸ்
in-tamil-canonical-0000000090	சுகன்யா பரோட்டா கடை, W469+GVC, Kondaiyanaidu Ln, South Gate, Periyar, Madurai Main, Madurai, Tamil Nadu 625001 ,  625001	9.9112404	78.1197818	noisy	IN	Tamil	canonical	node	11361661169	சுகன்யா பரோட்டா கடை
in-tamil-canonical-0000000091	சின்ன தும்கல் நீர் வீழ்ச்சி (thumkal water falls), சின்ன தும்மல் நீர் வீழ்ச்சி Pennagaram, Road, Dhasampatti, Tamil Nadu , Pennagaram	12.171014300000001	77.9150371	noisy	IN	Tamil	canonical	node	11459328992	சின்ன தும்கல் நீர் வீழ்ச்சி (thumkal water falls)
in-tamil-canonical-0000000092	சௌராஷ்டிரா பெண்கள் கல்லூரி, Vilachery Main Road, Pasumalai (P.O, Madurai, Tamil Nadu 625004) ,  625004	9.902552400000001	78.0724905	noisy	IN	Tamil	canonical	node	11477291172	சௌராஷ்டிரா பெண்கள் கல்லூரி
in-tamil-canonical-0000000093	கோபுரம் சினிமாஸ், 50 Feet Rd, Sellur, Madurai, Tamil Nadu 625014 ,  625014	9.9371361	78.1219592	noisy	IN	Tamil	canonical	node	11519486369	கோபுரம் சினிமாஸ்
in-tamil-canonical-0000000094	சன மொபைல்ஸ், 203, S Masi St, near Patcharisikara Street, Periyar, Mahal, Madurai, Tamil Nadu 625001 203,  625001	9.914879500000001	78.11780300000001	noisy	IN	Tamil	canonical	node	11527109973	சன மொபைல்ஸ்
in-tamil-canonical-0000000095	பொன்வேலன் சைக்கிள் மார்ட், Dhanappa Mudali Street, near Mohan Bhojnalaya Restuarant, Madurai Main, Madurai, Tamil Nadu 36,  625001	9.9194794	78.1162659	noisy	IN	Tamil	canonical	node	11563762370	பொன்வேலன் சைக்கிள் மார்ட்
in-tamil-canonical-0000000096	அம்மன் சைவ உணவகம், Kamarajar Salai, Pankajam Colony, Meenakshi Nagar, Madurai, Tamil Nadu 625009 ,  625009	9.914106100000001	78.143241	noisy	IN	Tamil	canonical	node	11578547773	அம்மன் சைவ உணவகம்
in-tamil-canonical-0000000097	ஹோட்டல் ஸ்ரீ சபரீஸ், 1, Kamarajar Salai, Pankajam Colony, Madurai, Tamil Nadu 625009 1,  625009	9.9135155	78.1444601	noisy	IN	Tamil	canonical	node	11578559073	ஹோட்டல் ஸ்ரீ சபரீஸ்
in-tamil-canonical-0000000098	மகா மெடிக்கல்ஸ், Chairman Muthuramaiyer Rd, Navarathinapuram, Madurai, Tamil Nadu 43,  625009	9.914400500000001	78.1330281	noisy	IN	Tamil	canonical	node	11578562171	மகா மெடிக்கல்ஸ்
in-tamil-canonical-0000000099	விருதுநகர் இந்து நாடார்கள் செந்திக்குமார நாடார் கல்லூரி (தன்னாட்சி), 3/151-1,College road, Anna Nagar, Virudhunagar, Tamil Nadu 626001 ,  625001	9.5775127	77.974046	noisy	IN	Tamil	canonical	node	11607418070	விருதுநகர் இந்து நாடார்கள் செந்திக்குமார நாடார் கல்லூரி (தன்னாட்சி)
in-tamil-canonical-0000000100	பாண்டியன் கரும்பு சாறு, Palace Road, Mahal Area, Madurai Main, Madurai, Tamil Nadu 625001 ,  625001	9.915724200000001	78.1250807	noisy	IN	Tamil	canonical	node	11633983269	பாண்டியன் கரும்பு சாறு
in-tamil-canonical-0000000101	லட்சுமி ஸ்டுடியோ, 232, East Velt Street, Opp:Merina Hotel, Vetrilaipettai, 232, E Veli St, Madurai Main, Madurai, Tami 232,  625001	9.9216248	78.125005	noisy	IN	Tamil	canonical	node	11694194269	லட்சுமி ஸ்டுடியோ
in-tamil-canonical-0000000102	Stats Perform India Pvt Ltd - ஸ்டேட்ஸ் பெர்பார்ம் இந்தியா ப்வ்ட் லட, Madhar Sha Tower, Anna Salai, Thousand Lights East , Chennai 600006	13.0568904	80.25662290000001	noisy	IN	Tamil	canonical	node	11703392922	Stats Perform India Pvt Ltd - ஸ்டேட்ஸ் பெர்பார்ம் இந்தியா ப்வ்ட் லட
in-tamil-canonical-0000000103	SKB Vidhyashram Play School - எஸ்கேபி வித்யாஸ்ரம் பிளே ஸ்கூல், 2nd Main Rd, Moovendar Nagar, Bharathi Nagar, Tambaram, Old Perungalathur 28, Chennai 600063	12.9218101	80.0925259	clean	IN	Tamil	canonical	node	11703493086	SKB Vidhyashram Play School - எஸ்கேபி வித்யாஸ்ரம் பிளே ஸ்கூல்
in-tamil-canonical-0000000104	YAA MOHIDEEN BIRYANI Tambaram - யா மொகிதீன் பிரியாணி தாம்பரம், Sriram nagar, Mudichur Rd, Ramani Nagar, West Tambaram, Tambaram, No. 15, Chennai 600045	12.9219301	80.09434320000001	clean	IN	Tamil	canonical	node	11703874549	YAA MOHIDEEN BIRYANI Tambaram - யா மொகிதீன் பிரியாணி தாம்பரம்
in-tamil-canonical-0000000105	Fit & Fast - ஃபிட் & பாஸ்ட், Mudichur Rd, Ramani Nagar, West Tambaram, Tambaram No. 697, Chennai 600063	12.922001600000002	80.09463380000001	clean	IN	Tamil	canonical	node	11703890135	Fit & Fast - ஃபிட் & பாஸ்ட்
in-tamil-canonical-0000000106	Krishna Net Cafe - கிருஷ்ணா நெட் கஃபே, TTJK Complex - Mudichur - Sriperumbudur Rd, Jyothi Nagar, Tambaram No.674-A, Chennai 600045	12.922115600000001	80.09408040000001	clean	IN	Tamil	canonical	node	11703916205	Krishna Net Cafe - கிருஷ்ணா நெட் கஃபே
in-tamil-canonical-0000000107	AKR Brothers Biriyani & tiffin center - கர் பிரதர்ஸ் பிரியாணி & டிஃபன் சென்டர், 1st Main Road, Vettri Nagar, Bharathi Nagar, Tambaram , Chennai 600063	12.9221509	80.09335080000001	noisy	IN	Tamil	canonical	node	11703955527	AKR Brothers Biriyani & tiffin center - கர் பிரதர்ஸ் பிரியாணி & டிஃபன் சென்டர்
in-tamil-canonical-0000000108	Akshaya Hotel - அக்ஷய ஹோட்டல், W3CV+XWJ, 2nd St, Vettri Nagar, Jyothi Nagar, Tambaram , Chennai 600063	12.922409100000001	80.0947871	noisy	IN	Tamil	canonical	node	11704001080	Akshaya Hotel - அக்ஷய ஹோட்டல்
in-tamil-canonical-0000000109	Lakshmi Shankar Unavagam - லக்ஷ்மி ஷங்கர் உணவகம், Mudichur Rd, Ramani Nagar, Karummariamman Nagar, Vishnu Nagar, Tambaram 12, Chennai 600063	12.9220176	80.0946993	clean	IN	Tamil	canonical	node	11704019186	Lakshmi Shankar Unavagam - லக்ஷ்மி ஷங்கர் உணவகம்
in-tamil-canonical-0000000110	The Great Lakshmi Ganapathi Temple - கிரேட் லட்சுமி கணபதி கோயில், 1st Main Road, Bharathi Nagar, West Tambaram, Chennai 600063	12.9229947	80.0930055	noisy	IN	Tamil	canonical	node	11704042281	The Great Lakshmi Ganapathi Temple - கிரேட் லட்சுமி கணபதி கோயில்
in-tamil-canonical-0000000111	சுஷி ஹூண்டாய், கப்பலூர், B1 & B2, Industrial Estate, SIDCO, Kappalur, Tamil Nadu 625008 ,  625008	9.8654609	78.02338680000001	noisy	IN	Tamil	canonical	node	11749622569	சுஷி ஹூண்டாய், கப்பலூர்
in-tamil-canonical-0000000112	மதுரை பெஸ்ட் முனியாண்டி விலாஸ், SH 72, Chinna Chokikulam, Madurai, Tamil Nadu 625002 ,  625002	9.9445721	78.15468390000001	noisy	IN	Tamil	canonical	node	11896761470	மதுரை பெஸ்ட் முனியாண்டி விலாஸ்
in-tamil-canonical-0000000113	மதுரை பன் பரோட்டா கடை, Aavin Signal, Madurai - Kallal Rd, Managiri, Sathamangalam, Madurai, Tamil Nadu 625020 ,  625020	9.926451100000001	78.14254360000001	noisy	IN	Tamil	canonical	node	11921888469	மதுரை பன் பரோட்டா கடை
in-tamil-canonical-0000000114	மதுராஸ் தோசை கம்பெனி, 134,80ft lakeview road, KK Nagar, Tamil Nadu 625020 ,  625020	9.9300899	78.1486969	noisy	IN	Tamil	canonical	node	11927753669	மதுராஸ் தோசை கம்பெனி
in-tamil-canonical-0000000115	தி சாக்லேட் ரூம், 80 Feet Rd, KK Nagar, Madurai, Tamil Nadu 625020 ,  625020	9.9328558	78.1488645	noisy	IN	Tamil	canonical	node	11927789069	தி சாக்லேட் ரூம்
in-tamil-canonical-0000000116	ஸ்ரீ காமாட்சி மஹால், 874, 161F, Kamarajar Salai, Madurai, Tamil Nadu 625009 ,  625009	9.913953300000001	78.14173810000001	noisy	IN	Tamil	canonical	node	11929962869	ஸ்ரீ காமாட்சி மஹால்
in-tamil-canonical-0000000117	அனந்த & அனந்த - காமராஜர் சாலை பிராஞ்ச், 54, Kamarajar Salai, Krishna Puram, Madurai, Tamil Nadu 625009 54,  625009	9.9176821	78.127397	noisy	IN	Tamil	canonical	node	11983102369	அனந்த & அனந்த - காமராஜர் சாலை பிராஞ்ச்
in-tamil-canonical-0000000118	ஹோட்டல் தி மெட்ரோபோல், 17A, Melur Main Rd, Opposite to District Court, Near Rajahia Muthiah Mandram, Mellur, Madurai, Tamil 17A,  625020	9.936497300000001	78.1419525	noisy	IN	Tamil	canonical	node	12026114169	ஹோட்டல் தி மெட்ரோபோல்
in-tamil-canonical-0000000119	மாவட்ட பதிவாளர் அலுவலகம், மதுரை, 171, Palace Road, Mahal Area, Madurai Main, Madurai, TamilNadu - 625001 171,  625001	9.9152435	78.1248451	noisy	IN	Tamil	canonical	node	12089112770	மாவட்ட பதிவாளர் அலுவலகம், மதுரை
in-tamil-canonical-0000000120	ஸ்ரீ சரவணா பேக்கரிஸ், 212, East Veli Street, opp. NewRajmahal, Kamarajar Salai, Madurai Main, Madurai, Tamil Nadu 625001 212,  625001	9.9201876	78.12524900000001	noisy	IN	Tamil	canonical	node	12157827001	ஸ்ரீ சரவணா பேக்கரிஸ்
in-tamil-canonical-0000000121	Vinayagar Temple,Balaji Nagar,kovil Palayam விநாயகர் டெம்பிள்,பாலாஜி நகர்,கோவில் பாளையம், Sarcarsamakulam 42PR+M2Q, coimbatore 641107	11.1367043	77.04006150000001	clean	IN	Tamil	canonical	node	12168348720	Vinayagar Temple,Balaji Nagar,kovil Palayam விநாயகர் டெம்பிள்,பாலாஜி நகர்,கோவில் பாளையம்
in-tamil-canonical-0000000122	கிருஷ்ணன் மெஸ், Teppakulam, Kamarajar Salai, Madurai, Tamil Nadu 159/1B,  625009	9.9136442	78.1438085	noisy	IN	Tamil	canonical	node	12307991201	கிருஷ்ணன் மெஸ்
in-tamil-canonical-0000000123	யோகி வேமனா உயர்நிலை பள்ளி, Dabaspete - Hosur Highway ,  635103	12.7949558	77.856243	noisy	IN	Tamil	canonical	node	12347796201	யோகி வேமனா உயர்நிலை பள்ளி
in-tamil-canonical-0000000124	ஸ்ரீ அனந்தீஸ்வரர் கோவில், Chennasanthiram	12.779673200000001	77.86934600000001	noisy	IN	Tamil	canonical	node	12347817601	ஸ்ரீ அனந்தீஸ்வரர் கோவில்
in-tamil-canonical-0000000125	பாகலூர் பேருந்து நிலையம், Bagalur	12.830318700000001	77.866158	noisy	IN	Tamil	canonical	node	12350925201	பாகலூர் பேருந்து நிலையம்
in-tamil-canonical-0000000126	துளசி பார்மசி, Dabaspete - Hosur Highway	12.7457796	77.8339248	noisy	IN	Tamil	canonical	node	12398998001	துளசி பார்மசி
in-tamil-canonical-0000000127	கிருஷ்ணன் மட்டன் ஸ்டால் & பிராய்லர், East Veli Street, Nelpettai, Madurai Main, Lakshmipuram, Madurai, Tamil Nadu 11/12,  625001	9.9227108	78.1251747	noisy	IN	Tamil	canonical	node	12465669004	கிருஷ்ணன் மட்டன் ஸ்டால் & பிராய்லர்
in-tamil-canonical-0000000128	விக்டோரியா பள்ளி CBSE, Beach Road, opp, Muthu Nagar Beach, Thoothukudi, Tamil Nadu 628001 ,  628001	8.8076407	78.1611417	noisy	IN	Tamil	canonical	node	12477693601	விக்டோரியா பள்ளி CBSE
in-tamil-canonical-0000000129	கறி கஞ்சி, Perumal kovil, North Street, Tallakulam, Tamil Nadu 2,  625002	9.9345224	78.1361957	noisy	IN	Tamil	canonical	node	12529266902	கறி கஞ்சி
in-tamil-canonical-0000000130	சிவஜெய மஹால், Karadi Patti, Kochi - Madurai - Dhanushkodi Rd, Nagamalaipudukottai, Tamil Nadu 4/337,  625018	9.9357374	78.0385794	noisy	IN	Tamil	canonical	node	12550742901	சிவஜெய மஹால்
in-tamil-canonical-0000000131	முத்து தங்கம் கல்யாண மஹால், Kamarajar Salai, near Nirmala School, Madurai, Tamil Nadu 161J,  625009	9.9129261	78.1413686	noisy	IN	Tamil	canonical	node	12650159001	முத்து தங்கம் கல்யாண மஹால்
in-tamil-canonical-0000000132	அரசு மருத்துவமனை - முத்துப்பேட்டை, Tiruvarur - Mannargudi - Muthupet Road	10.399673	79.4966964	noisy	IN	Tamil	canonical	node	12705210701	அரசு மருத்துவமனை - முத்துப்பேட்டை
in-tamil-canonical-0000000133	சந்தை, Tiruvarur - Mannargudi - Muthupet Road	10.4001277	79.49729500000001	noisy	IN	Tamil	canonical	node	12705215006	சந்தை
in-tamil-canonical-0000000134	பி டி ஆர் டிபன் சென்டர், Munichalai, Kamarajar Salai, Madurai, Tamil Nadu ,  625009	9.9171008	78.133082	noisy	IN	Tamil	canonical	node	12760481601	பி டி ஆர் டிபன் சென்டர்
in-tamil-canonical-0000000135	தமிழ்நாடு செய்தித்தாள் காகித நிருவனம், Anna Salai (Mount Road) 67,  600032	13.011056300000002	80.2185774	noisy	IN	Tamil	canonical	node	12773528701	தமிழ்நாடு செய்தித்தாள் காகித நிருவனம்
in-tamil-canonical-0000000136	எஸ். எஸ். காப்பி பார், East Masi Street, Kamarajar Salai, Nelpettai, Madurai Main, Madurai, Tamil Nadu 218,  625001	9.920988900000001	78.12505180000001	noisy	IN	Tamil	canonical	node	12858165302	எஸ். எஸ். காப்பி பார்
in-tamil-canonical-0000000137	Siddhivalaakam சித்திவளாகம், Mettukuppam Road, near VADALUR, Mettukuppam, Tamil Nadu 607802	11.5192215	79.5296989	noisy	IN	Tamil	canonical	node	12916325450	Siddhivalaakam சித்திவளாகம்
in-tamil-canonical-0000000138	Siddhivalaakam சித்திவளாகம், Mettukuppam Road, near VADALUR, Mettukuppam, Tamil Nadu 607802	11.5192215	79.5296989	noisy	IN	Tamil	canonical	node	12916578064	Siddhivalaakam சித்திவளாகம்
in-tamil-canonical-0000000139	Karungulzhi வள்ளலார் திருக்கோயில் - தண்ணீரில் விளக்கேற்றிய இல்லம், கருங்குழி, Karunguzhi, Tamil Nadu ,  607303	11.5192438	79.54394190000001	noisy	IN	Tamil	canonical	node	12917319402	Karungulzhi வள்ளலார் திருக்கோயில் - தண்ணீரில் விளக்கேற்றிய இல்லம், கருங்குழி
in-tamil-canonical-0000000140	அபூர்வ ஸ்வீட்ஸ் & பேக்கரி வி.ராஜசேகர், Virudhachalam - Cuddalore Road, opposite police station, Kullanchavadi, Tamilnadu	11.628417800000001	79.6692857	noisy	IN	Tamil	canonical	node	12923582401	அபூர்வ ஸ்வீட்ஸ் & பேக்கரி வி.ராஜசேகர்
in-tamil-canonical-0000000141	திருமலை பவன் உயர்தர அசைவ உணவகம், Padaleeswarar Koil Street, Muthaiya Nagar, Thirupapuliyur, Cuddalore, Tamil Nadu 106,  607002	11.746574500000001	79.7482525	noisy	IN	Tamil	canonical	node	12923691908	திருமலை பவன் உயர்தர அசைவ உணவகம்
in-tamil-canonical-0000000142	க்லடிஸ், Theni Road, opposite Devaki Scan, Arasaradi, Madurai, Tamil Nadu. No:2,  625016	9.9281345	78.0980346	noisy	IN	Tamil	canonical	node	13006321201	க்லடிஸ்
in-tamil-canonical-0000000143	புற டிஃபன் சென்டர், Pandiya Velalar Street, South Gate, Periyar, Madurai Main, Madurai, Tamil Nadu. 6,  625001	9.9118607	78.11589760000001	noisy	IN	Tamil	canonical	node	13008673605	புற டிஃபன் சென்டர்
in-tamil-canonical-0000000144	ஶ்ரீ ராமலக்ஷ்மண அயன் ஒர்க்ஸ், Chinna Kadai St, South Gate, Madurai Main, Madurai, Tamil Nadu. 41,  625001	9.913259	78.11977420000001	noisy	IN	Tamil	canonical	node	13008756501	ஶ்ரீ ராமலக்ஷ்மண அயன் ஒர்க்ஸ்
in-tamil-canonical-0000000145	ஹரிஷ் அடுமனை இனிப்பகம், East Masi Street, Kamarajar Salai, Madurai Main, Madurai, Tamil Nadu. 167,  625001	9.917908800000001	78.1236476	noisy	IN	Tamil	canonical	node	13013878401	ஹரிஷ் அடுமனை இனிப்பகம்
in-tamil-canonical-0000000146	மங்கை மாகாளி கோயில், N Car St, Utrakosamangai, Tamil Nadu ,  623533	9.3182845	78.7403455	noisy	IN	Tamil	canonical	node	13046162302	மங்கை மாகாளி கோயில்
in-tamil-canonical-0000000147	ஹட்சன் ஸ்டோர், 623707, SPM Colony, Attupalam, Paramakudi, Tamil Nadu ,  623707	9.5496195	78.58826020000001	noisy	IN	Tamil	canonical	node	13046163803	ஹட்சன் ஸ்டோர்
in-tamil-canonical-0000000148	Karthik Store (a) மாணிக்கம் மளிகை, Chinna kadai Street 4/75, Singalandapuram 637412	11.4165583	78.22340650000001	clean	IN	Tamil	canonical	node	13137815676	Karthik Store (a) மாணிக்கம் மளிகை
in-tamil-canonical-0000000149	நம்ம நக்கம்பாடி	11.263334200000001	79.1571653	noisy	IN	Tamil	canonical	node	13245734416	நம்ம நக்கம்பாடி
in-tamil-canonical-0000000150	தின்னை மெஸ், 2nd Main Road 80	13.027376	80.254007	noisy	IN	Tamil	canonical	node	13253593001	தின்னை மெஸ்
in-tamil-canonical-0000000151	எம தர்மராஜா  கோட்டை (கோவில் )   Yama Dharmaraja Kottai/Temple  (எமன்,காலன் &தூதன்  கோவில் )   (Yaman, Kala & Thoothan temple), Terku DevadanamDevadanam, Tamil Nadu 626121, India , Terku Devadanam 626121	9.379141	77.4399906	noisy	IN	Tamil	canonical	node	13313072644	எம தர்மராஜா  கோட்டை (கோவில் )   Yama Dharmaraja Kottai/Temple  (எமன்,காலன் &தூதன்  கோவில் )   (Yaman, Kala & Thoothan temple)
in-tamil-canonical-0000000152	நீல்கிரீஸ், 7th Street, Managiri, KK Nagar, Madurai, Tamil Nadu. 14/67,  625020	9.9312267	78.1483243	noisy	IN	Tamil	canonical	node	13319098402	நீல்கிரீஸ்
in-tamil-canonical-0000000153	க்ஸ் ஸ்கேன், Anna Salai, Opposite Priya Complex, Anna Nagar, Madurai, Tamil Nadu 766,  625020	9.9234057	78.142086	noisy	IN	Tamil	canonical	node	13319231202	க்ஸ் ஸ்கேன்
in-tamil-canonical-0000000154	ஜேபி மருந்தகம், South Masi Street, Valaiyal Kadai, Madurai Main, Madurai, Tamil Nadu 20, 21,  625001	9.914851800000001	78.11727780000001	noisy	IN	Tamil	canonical	node	13319274401	ஜேபி மருந்தகம்
in-tamil-canonical-0000000155	ஈகிள், East Veli Street, Nelpettai, Lakshmipuram, Madurai, Tamil Nadu. 217,  625001	9.9224598	78.1249099	noisy	IN	Tamil	canonical	node	13329680801	ஈகிள்
in-tamil-canonical-0000000156	வேர்ட்ஸ் & வோர்த்ஸ் புக்ஸ் பிரைவட் லிமிடெட், Besant Nagar 2nd Avenue E28,  600090	12.996138	80.2679519	noisy	IN	Tamil	canonical	node	13375180001	வேர்ட்ஸ் & வோர்த்ஸ் புக்ஸ் பிரைவட் லிமிடெட்
in-tamil-canonical-0000000157	அருணாசலம் கமலாம்பாள், Kochi - Madurai - Dhanushkodi Rd, Pankajam Colony, Kamarajar Salai, Madurai, Tamil Nadu ,  625009	9.9142436	78.141655	noisy	IN	Tamil	canonical	node	13375580616	அருணாசலம் கமலாம்பாள்
in-tamil-canonical-0000000158	ஜேபி பார்மசி, East Veli St-Munichalai Connecting Road 35,  625001	9.921443100000001	78.12527080000001	noisy	IN	Tamil	canonical	node	13380652901	ஜேபி பார்மசி
in-tamil-canonical-0000000159	கவண் மருத்துவமனை, Dharmapuri - Morappur - Harur Road 2/343-A	12.0658594	78.4723494	noisy	IN	Tamil	canonical	node	13430865260	கவண் மருத்துவமனை
in-tamil-canonical-0000000160	பார்த்திபனூர் வெள்ணையம்மாள்கோவில், Madurai Main Road, Parthibanur, Melaparthibanur, Tamil Nadu. ,  623608	9.587625500000001	78.453985	noisy	IN	Tamil	canonical	node	13629927901	பார்த்திபனூர் வெள்ணையம்மாள்கோவில்
in-tamil-canonical-0000000161	மேக்ஸ், Bypass Road, near dominos, Ponmeni, Madurai, Tamil Nadu 53,  625016	9.9184412	78.0938242	noisy	IN	Tamil	canonical	node	13641451602	மேக்ஸ்
in-tamil-canonical-0000000162	லூயிஸ் பிலிப், Bypass Road, Somasundaram colony, Dindigul, Madurai, Tamil Nadu. ,  625016	9.922645900000001	78.09423120000001	noisy	IN	Tamil	canonical	node	13641492802	லூயிஸ் பிலிப்
in-tamil-canonical-0000000163	பேமஸ் ஜிகர்தண்டா LLP, M.I.G, 308, 80 Feet Road, Anna Nagar, Madurai, Tamil Nadu ,  625020	9.920850600000001	78.14859600000001	noisy	IN	Tamil	canonical	node	13644626004	பேமஸ் ஜிகர்தண்டா LLP
in-tamil-canonical-0000000164	இளந்திரைகொண்டான், Ayyanar Nagar. (WD 44 Near Nilan SQUARE. (Anna salai, 80 Feet Rd, KK Nagar, Madurai, Tamil Nadu 19/7	9.929118200000001	78.14333500000001	noisy	IN	Tamil	canonical	node	13644637801	இளந்திரைகொண்டான்
in-tamil-canonical-0000000165	மொஹைதீன் ஆண்டவர் ஆட்டோமொபைல்ஸ், இந்தியன் ஆயில் டீலர், Lock No 18, Anna Nagar, Madurai, Tamil Nadu ,  625020	9.9247218	78.141491	noisy	IN	Tamil	canonical	node	13644676101	மொஹைதீன் ஆண்டவர் ஆட்டோமொபைல்ஸ், இந்தியன் ஆயில் டீலர்
in-tamil-canonical-0000000166	அருண் ஆட்டோமொபைல்ஸ், Ground Floor, Melur Main Road, Mellur, Madurai, Tamil Nadu ,  625020	9.938478700000001	78.1456611	noisy	IN	Tamil	canonical	node	13644706101	அருண் ஆட்டோமொபைல்ஸ்
in-tamil-canonical-0000000167	ஜவஹர்லால் நேரு ஸ்டேடியம், கோவை, Coimbatore 641018			noisy	IN	Tamil	canonical	relation	9099421	ஜவஹர்லால் நேரு ஸ்டேடியம், கோவை
in-tamil-canonical-0000000168	Gulf of Mannar / මන්නාරම් බොක්ක / மன்னார் வளைகுடா			noisy	IN	Tamil	canonical	relation	9328385	Gulf of Mannar / මන්නාරම් බොක්ක / மன்னார் வளைகுடா
in-tamil-canonical-0000000169	3ஆம் தெரு, Nehru Nagar , Thirumangalam, Chennai			noisy	IN	Tamil	canonical	way	26970230	3ஆம் தெரு
in-tamil-canonical-0000000170	4ஆம் தெரு, Nehru Nagar , Thirumangalam, Chennai			noisy	IN	Tamil	canonical	way	26970231	4ஆம் தெரு
in-tamil-canonical-0000000171	2ஆம் தெரு, Nehru Nagar , Thirumangalam, Chennai			noisy	IN	Tamil	canonical	way	26970232	2ஆம் தெரு
in-tamil-canonical-0000000172	1ஆம் தெரு, Nehru Nagar , Thirumangalam, Chennai			noisy	IN	Tamil	canonical	way	28087222	1ஆம் தெரு
in-tamil-canonical-0000000173	அறிஞர் அண்ணா அரசு இந்திய,மருத்துவமனை,அரும்பாக்கம்,சென்னை-106, Anna Arch Road			noisy	IN	Tamil	canonical	way	100857284	அறிஞர் அண்ணா அரசு இந்திய,மருத்துவமனை,அரும்பாக்கம்,சென்னை-106
in-tamil-canonical-0000000174	எக்ஸ்பிரஸ் அவென்யூ மால், Whites Road 2, Chennai 600014			clean	IN	Tamil	canonical	way	154030370	எக்ஸ்பிரஸ் அவென்யூ மால்
in-tamil-canonical-0000000175	அமெரிக்கன் கல்லூரி , மதுரை, Alagar Kovil Main Rd, Alwarpuram, Tallakulam, Madurai, Tamil Nadu 625020 ,  625020			noisy	IN	Tamil	canonical	way	186262500	அமெரிக்கன் கல்லூரி , மதுரை
in-tamil-canonical-0000000176	ஸ்ட.ஜோசப்மிடில் ஸ்கூல், Chinthamani Road, Mahalipatti, Madurai, Tamil Nadu 625001 ,  625001			noisy	IN	Tamil	canonical	way	186788637	ஸ்ட.ஜோசப்மிடில் ஸ்கூல்
in-tamil-canonical-0000000177	சைதாப்பேட்டை அரசு மருத்துவமனை, Jeenis Road ,  600015			noisy	IN	Tamil	canonical	way	214188197	சைதாப்பேட்டை அரசு மருத்துவமனை
in-tamil-canonical-0000000178	நல்லபுள்ளி அம்மன் கோவில், Morur West , Tiruchengode taluk			noisy	IN	Tamil	canonical	way	306349075	நல்லபுள்ளி அம்மன் கோவில்
in-tamil-canonical-0000000179	Masjid E Ilaahi மஸ்ஜிதே இலாஹி, Dhroupathy Amman Koil Street 10			noisy	IN	Tamil	canonical	way	354810737	Masjid E Ilaahi மஸ்ஜிதே இலாஹி
in-tamil-canonical-0000000180	தீக்கதிர், suyavar veedhi,East Jones Road,Periyapet, 2/3, Saidapet, Chennai			noisy	IN	Tamil	canonical	way	355079788	தீக்கதிர்
in-tamil-canonical-0000000181	பாரதி புத்தகாலயம், Nattumuthu Street 7,  600018			noisy	IN	Tamil	canonical	way	355899052	பாரதி புத்தகாலயம்
in-tamil-canonical-0000000182	பாடலீசுவரர் கோவில், Cuddalore			noisy	IN	Tamil	canonical	way	360844396	பாடலீசுவரர் கோவில்
in-tamil-canonical-0000000183	பாலவாக்கத்தம்மன் ஆலயம், Anna Salai , பாலவாக்கம்			noisy	IN	Tamil	canonical	way	397271847	பாலவாக்கத்தம்மன் ஆலயம்
in-tamil-canonical-0000000184	திருவரங்கம் வட்டம் பட்டாம்பூச்சு பூங்கா, Tiruchirapalli			noisy	IN	Tamil	canonical	way	399600018	திருவரங்கம் வட்டம் பட்டாம்பூச்சு பூங்கா
in-tamil-canonical-0000000185	முருகன் கோவில், Sannathi Street			noisy	IN	Tamil	canonical	way	477709866	முருகன் கோவில்
in-tamil-canonical-0000000186	சத்யம் கிட்னி கேர் சென்டர் Sathyam Kidney Care Centre, Thadagam Road 5/621-A, KNG Pudur Pirivu 641029			clean	IN	Tamil	canonical	way	508287899	சத்யம் கிட்னி கேர் சென்டர் Sathyam Kidney Care Centre
in-tamil-canonical-0000000187	இபான்ட் ஜெயசூசி சர்ச் Infant Jesus church, KNG Pudur - GN Mills Road , KNG Pudur Pirivu 641025			noisy	IN	Tamil	canonical	way	508287900	இபான்ட் ஜெயசூசி சர்ச் Infant Jesus church
in-tamil-canonical-0000000188	திரு உவரி சுயம்புலிங்க சுவாமி திருக்கோவில், Thoothukudi - Tiruchendur - Kanyakumari Road , Uvari 627651			noisy	IN	Tamil	canonical	way	548853275	திரு உவரி சுயம்புலிங்க சுவாமி திருக்கோவில்
in-tamil-canonical-0000000189	மிக்கேல் அதிதூதர் கெபி, Main Road , Mudalur 628702			noisy	IN	Tamil	canonical	way	572221493	மிக்கேல் அதிதூதர் கெபி
in-tamil-canonical-0000000190	யோவான் ஆலயம், Adayal , Mudalur 628702			noisy	IN	Tamil	canonical	way	572762916	யோவான் ஆலயம்
in-tamil-canonical-0000000191	அருண் மருத்துவமனை, 185-186, Munichalai Rd, Nelpettai, Madurai, Tamil Nadu 625009 185-186,  625009			noisy	IN	Tamil	canonical	way	740649101	அருண் மருத்துவமனை
in-tamil-canonical-0000000192	Viranarayanan perumal temple (வீரநாராயண பெருமாள் கோயில்), Trichy - Chidambaram Road ,  612901			noisy	IN	Tamil	canonical	way	767664626	Viranarayanan perumal temple (வீரநாராயண பெருமாள் கோயில்)
in-tamil-canonical-0000000193	விஜய் நர்சிங் ஹோம், Vetri Vinayagar Koil Street, 17 & 19, 100 Feet Rd, Pankajam Colony, Kamarajar Salai, Tamil Nadu ,  625009			noisy	IN	Tamil	canonical	way	769386230	விஜய் நர்சிங் ஹோம்
in-tamil-canonical-0000000194	தேனி ஆனந்தம் - சில்க்ஸ் & ரெடிமேட்ஸ், 19, Junction, Thiruvengadapuram, Alwarpuram, Goripalayam, Madurai, Tamil Nadu 625002 ,  625002			noisy	IN	Tamil	canonical	way	781364726	தேனி ஆனந்தம் - சில்க்ஸ் & ரெடிமேட்ஸ்
in-tamil-canonical-0000000195	Kavaratty கவரட்டி			noisy	IN	Tamil	canonical	way	790636805	Kavaratty கவரட்டி
in-tamil-canonical-0000000196	அமிசியா கவுண்டணூர்			noisy	IN	Tamil	canonical	way	1000697468	அமிசியா கவுண்டணூர்
in-tamil-canonical-0000000197	நல்லூர்			noisy	IN	Tamil	canonical	way	1000697470	நல்லூர்
in-tamil-canonical-0000000198	பொன்னாண்டா கவுண்டணூர்			noisy	IN	Tamil	canonical	way	1000697471	பொன்னாண்டா கவுண்டணூர்
in-tamil-canonical-0000000199	அத்தனார்வரம்			noisy	IN	Tamil	canonical	way	1000746157	அத்தனார்வரம்
in-tamil-canonical-0000000200	பருத்தியார்			noisy	IN	Tamil	canonical	way	1000746158	பருத்தியார்
in-tamil-canonical-0000000201	ஆண்டிகூட			noisy	IN	Tamil	canonical	way	1000746159	ஆண்டிகூட
in-tamil-canonical-0000000202	இராவணபுரம்			noisy	IN	Tamil	canonical	way	1000746160	இராவணபுரம்
in-tamil-canonical-0000000203	Kalladikuttai - கல்லடிக்குட்டை			noisy	IN	Tamil	canonical	way	1052369133	Kalladikuttai - கல்லடிக்குட்டை
in-tamil-canonical-0000000204	பெரியக்கோட்டை			noisy	IN	Tamil	canonical	way	1087921617	பெரியக்கோட்டை
in-tamil-canonical-0000000205	கலைஞர் நூற்றாண்டு நூலகம், Natham Road, Race Course Colony, Ramaond Reserve Line, Madurai, Tamil Nadu 625002 ,  625002			noisy	IN	Tamil	canonical	way	1154089610	கலைஞர் நூற்றாண்டு நூலகம்
in-tamil-canonical-0000000206	குடியிருப்பு பகுதி			noisy	IN	Tamil	canonical	way	1226210984	குடியிருப்பு பகுதி
in-tamil-canonical-0000000207	ஆண்டவர் செக்கு ஆயில் ஸ்டோர், Thondamuthur Main road			noisy	IN	Tamil	canonical	way	1232732276	ஆண்டவர் செக்கு ஆயில் ஸ்டோர்
in-tamil-partial-0000000001	கண்ணன் நகர்	12.9699068	80.18931640000001	noisy	IN	Tamil	partial	node	280510383	கண்ணன் நகர்
de-tamil-partial-0000000002	நாகம்மா புடவையகம், Berlin	52.4902201	13.361547600000002	clean	DE	Tamil	partial	node	1713177124	நாகம்மா புடவையகம்
in-tamil-partial-0000000003	மேட்டுப்பாளையம் உழவர் சந்தை, Mettupalayam	11.3010351	76.93741700000001	noisy	IN	Tamil	partial	node	2320542332	மேட்டுப்பாளையம் உழவர் சந்தை
in-tamil-partial-0000000004	அம்பிகா சினிமாஸ்	9.9184891	78.14823290000001	noisy	IN	Tamil	partial	node	2430078677	அம்பிகா சினிமாஸ்
in-tamil-partial-0000000005	இந்தியன் ஆயில்	9.9355411	78.13659390000001	noisy	IN	Tamil	partial	node	2517281258	இந்தியன் ஆயில்
in-tamil-partial-0000000006	குஞ்சுபலிகாடு	11.4363451	77.8655177	noisy	IN	Tamil	partial	node	3114727956	குஞ்சுபலிகாடு
in-tamil-partial-0000000007	வேங்கிபாளையம்	11.4232987	77.85752980000001	noisy	IN	Tamil	partial	node	3145427782	வேங்கிபாளையம்
in-tamil-partial-0000000008	இரத்தினசாமி உதவி பெறும் நடுநிலை பள்ளி, புவனகிரி	11.4427423	79.6538799	noisy	IN	Tamil	partial	node	3206045719	இரத்தினசாமி உதவி பெறும் நடுநிலை பள்ளி
in-tamil-partial-0000000009	சின்ன மலை Little Mount Metro, Chennai	13.015576800000002	80.22503300000001	noisy	IN	Tamil	partial	node	3264883515	சின்ன மலை Little Mount Metro
in-tamil-partial-0000000010	தேனீ அருங்காட்சியகம், ஊட்டி, Ooty	11.4131715	76.6968956	clean	IN	Tamil	partial	node	3725644175	தேனீ அருங்காட்சியகம், ஊட்டி
in-tamil-partial-0000000011	சண்முகம் அமிர்தா இல்லம், k.nerpugappatti	10.148003000000001	78.7736031	clean	IN	Tamil	partial	node	4459315311	சண்முகம் அமிர்தா இல்லம்
in-tamil-partial-0000000012	அமிரதம் ஸ்வீட் ஹோம்	9.9212247	78.148381	noisy	IN	Tamil	partial	node	4881692069	அமிரதம் ஸ்வீட் ஹோம்
in-tamil-partial-0000000013	Joint Director of Agriculture Complex விவசாயம் காம்ப்ளக்ஸ் இணை இயக்குநர், Cuddalore	11.7661668	79.7516782	noisy	IN	Tamil	partial	node	5224226188	Joint Director of Agriculture Complex விவசாயம் காம்ப்ளக்ஸ் இணை இயக்குநர்
in-tamil-partial-0000000014	தேவி கருமாரியம்மன் கோவில், Thirumangalam, Chennai	13.084021000000002	80.1984073	noisy	IN	Tamil	partial	node	5227394520	தேவி கருமாரியம்மன் கோவில்
in-tamil-partial-0000000015	அகத்தி இயற்கை சந்தை	12.9184894	80.1158905	noisy	IN	Tamil	partial	node	5246751922	அகத்தி இயற்கை சந்தை
in-tamil-partial-0000000016	வாசவி மஹால், Ayyampettai	10.8946562	79.18715730000001	noisy	IN	Tamil	partial	node	5287634595	வாசவி மஹால்
in-tamil-partial-0000000017	செ.தெ நாயகம் தியாகராய நகர் மேனிலைப் பள்ளி	13.0361057	80.2365642	noisy	IN	Tamil	partial	node	5320053509	செ.தெ நாயகம் தியாகராய நகர் மேனிலைப் பள்ளி
in-tamil-partial-0000000018	Sivan koil (சிவன் கோயில்)	11.2989446	79.55345840000001	noisy	IN	Tamil	partial	node	5336877633	Sivan koil (சிவன் கோயில்)
in-tamil-partial-0000000019	அரசு ஆண்கள் மேல்நிலைப் பள்ளி	11.385043900000001	77.89482790000001	noisy	IN	Tamil	partial	node	5340680821	அரசு ஆண்கள் மேல்நிலைப் பள்ளி
in-tamil-partial-0000000020	வீரத்தின் அடையாளம் புதுப்பட்டி	10.008072400000001	78.4507083	noisy	IN	Tamil	partial	node	5434642693	வீரத்தின் அடையாளம் புதுப்பட்டி
in-tamil-partial-0000000021	குண்டூர் சுப்பையா பிள்ளை தி.நகர் பெண்கள் மேல் நிலைப்பள்ளி	13.0358756	80.23743950000001	noisy	IN	Tamil	partial	node	5484076358	குண்டூர் சுப்பையா பிள்ளை தி.நகர் பெண்கள் மேல் நிலைப்பள்ளி
in-tamil-partial-0000000022	கட்டணமில்லா கழிப்பிடம்	13.032666	80.2171155	noisy	IN	Tamil	partial	node	5498746021	கட்டணமில்லா கழிப்பிடம்
in-tamil-partial-0000000023	உபகார மாதா ஆலயம், Mudalur	8.417445800000001	77.9457014	noisy	IN	Tamil	partial	node	5502394124	உபகார மாதா ஆலயம்
in-tamil-partial-0000000024	ஹிபா சிறப்பு மருத்துவமனை	13.0615207	80.27574700000001	noisy	IN	Tamil	partial	node	5547728024	ஹிபா சிறப்பு மருத்துவமனை
in-tamil-partial-0000000025	பாரதி அறிவுடைமை பொது நூலகம்	12.862919100000001	80.2145177	noisy	IN	Tamil	partial	node	5715499085	பாரதி அறிவுடைமை பொது நூலகம்
in-tamil-partial-0000000026	எழுச்சி தமிழர் தானி ஓட்டுநர் நலச் சங்கம்	11.9257152	79.83295150000001	noisy	IN	Tamil	partial	node	5762145081	எழுச்சி தமிழர் தானி ஓட்டுநர் நலச் சங்கம்
in-tamil-partial-0000000027	அம்மாபேட்டை கல்வி அறக்கட்டளை, Kallakurichi	11.790370800000002	78.8644154	noisy	IN	Tamil	partial	node	5775337273	அம்மாபேட்டை கல்வி அறக்கட்டளை
in-tamil-partial-0000000028	ரிலையன்ஸ் ட்ரெண்ட்ஸ்	12.9287702	80.20291230000001	noisy	IN	Tamil	partial	node	5802044855	ரிலையன்ஸ் ட்ரெண்ட்ஸ்
in-tamil-partial-0000000029	ஃபிட் ராக் அரினா - பள்ளிக்கரணை	12.923390600000001	80.2082448	noisy	IN	Tamil	partial	node	5802051053	ஃபிட் ராக் அரினா - பள்ளிக்கரணை
in-tamil-partial-0000000030	தமிழ்நாடு ராஜ் பவன்	13.005915600000002	80.2265244	noisy	IN	Tamil	partial	node	5851464592	தமிழ்நாடு ராஜ் பவன்
in-tamil-partial-0000000031	சட்ட பஞ்சாயத்து இயக்கம்	12.987604500000002	80.2542499	noisy	IN	Tamil	partial	node	5892458785	சட்ட பஞ்சாயத்து இயக்கம்
in-tamil-partial-0000000032	நீயு கோல்டன் பேக்கரி & இனிப்பு	12.505822400000001	79.6037671	noisy	IN	Tamil	partial	node	5910777885	நீயு கோல்டன் பேக்கரி & இனிப்பு
in-tamil-partial-0000000033	அக்பர் மருந்து மில்	13.034794100000001	80.27374900000001	noisy	IN	Tamil	partial	node	5918435985	அக்பர் மருந்து மில்
in-tamil-partial-0000000034	சரவணா ஸ்டோர்	12.92651	80.1154296	noisy	IN	Tamil	partial	node	5989898292	சரவணா ஸ்டோர்
in-tamil-partial-0000000035	சங்கர குட்றாலிங்கம்	12.926682300000001	80.1312589	noisy	IN	Tamil	partial	node	5989898293	சங்கர குட்றாலிங்கம்
in-tamil-partial-0000000036	வி.பி.சிந்தன் இல்லம் (CITU Perungudi Office)	12.9593035	80.2474059	noisy	IN	Tamil	partial	node	6010166735	வி.பி.சிந்தன் இல்லம் (CITU Perungudi Office)
in-tamil-partial-0000000037	பயணவழி உணவகம்	12.6448611	79.939902	noisy	IN	Tamil	partial	node	6031421185	பயணவழி உணவகம்
in-tamil-partial-0000000038	தமிழ்நாடு அரசு இசேவை மையம்	13.0537796	80.2743911	noisy	IN	Tamil	partial	node	6050605286	தமிழ்நாடு அரசு இசேவை மையம்
in-tamil-partial-0000000039	மருதமலை பேருந்து நிலையம், coimbatore	11.043498900000001	76.86391900000001	noisy	IN	Tamil	partial	node	6143848628	மருதமலை பேருந்து நிலையம்
in-tamil-partial-0000000040	பியுர் சினிமா	13.049054700000001	80.2099961	noisy	IN	Tamil	partial	node	6153155685	பியுர் சினிமா
in-tamil-partial-0000000041	மலையாண்டி விலாஸ்	10.751614100000001	78.6500039	noisy	IN	Tamil	partial	node	6202885595	மலையாண்டி விலாஸ்
in-tamil-partial-0000000042	அம்மி தற்சார்பு சந்தை	10.9913936	76.9607627	noisy	IN	Tamil	partial	node	6357493685	அம்மி தற்சார்பு சந்தை
in-tamil-partial-0000000043	ஸ்ரீ கிருஷ்ணா டிபன் சென்டர்	11.9285204	79.8258484	noisy	IN	Tamil	partial	node	6499865785	ஸ்ரீ கிருஷ்ணா டிபன் சென்டர்
in-tamil-partial-0000000044	கண்டோன்மெண்ட்	10.8004792	78.6787267	noisy	IN	Tamil	partial	node	6507644587	கண்டோன்மெண்ட்
in-tamil-partial-0000000045	திருமங்கலம்	13.090667400000001	80.1984558	noisy	IN	Tamil	partial	node	6518463385	திருமங்கலம்
in-tamil-partial-0000000046	ரஹ்மத் பதிப்பகம்	13.042840400000001	80.2601928	noisy	IN	Tamil	partial	node	6779400485	ரஹ்மத் பதிப்பகம்
in-tamil-partial-0000000047	குவிகம்	13.035433000000001	80.23857770000001	noisy	IN	Tamil	partial	node	6790108586	குவிகம்
in-tamil-partial-0000000048	எஸ் பி மருத்துவமனை	9.9224443	78.1489693	noisy	IN	Tamil	partial	node	6936708995	எஸ் பி மருத்துவமனை
in-tamil-partial-0000000049	சென்னை மெரினா கலங்கரை விளக்கம்	13.039631	80.2794168	noisy	IN	Tamil	partial	node	7016742491	சென்னை மெரினா கலங்கரை விளக்கம்
in-tamil-partial-0000000050	பில்ஸ் பிஸ்ட்ரோ	9.932691400000001	78.1480993	noisy	IN	Tamil	partial	node	7020233396	பில்ஸ் பிஸ்ட்ரோ
in-tamil-partial-0000000051	புத்தூர் பகுதி நேர நியாய விலைக் கடை	11.2639627	77.63172150000001	noisy	IN	Tamil	partial	node	7170271857	புத்தூர் பகுதி நேர நியாய விலைக் கடை
in-tamil-partial-0000000052	Thanthai Periyar Memorial House தந்தை பெரியார் நினைவு இல்லம்	11.3396468	77.731671	noisy	IN	Tamil	partial	node	7171213567	Thanthai Periyar Memorial House தந்தை பெரியார் நினைவு இல்லம்
in-tamil-partial-0000000053	புத்தூர் பால் உற்பத்தியாளர்கள் கூட்டுறவு சங்கம்	11.2639578	77.63164660000001	noisy	IN	Tamil	partial	node	7178583638	புத்தூர் பால் உற்பத்தியாளர்கள் கூட்டுறவு சங்கம்
in-tamil-partial-0000000054	ஸ்ரீ லக்ஷ்மி நரசிம்ஹ கோயில்	11.865383600000001	79.78112510000001	noisy	IN	Tamil	partial	node	7202915724	ஸ்ரீ லக்ஷ்மி நரசிம்ஹ கோயில்
in-tamil-partial-0000000055	அமுதம் பல்பொருள் சிறப்பு அங்காடி(சுய சேவை பிரிவு)	13.047425800000001	80.26861500000001	noisy	IN	Tamil	partial	node	7953366985	அமுதம் பல்பொருள் சிறப்பு அங்காடி(சுய சேவை பிரிவு)
in-tamil-partial-0000000056	கிராம நிர்வாக அலுவலர் தண்டலம்	13.0144791	80.0035929	noisy	IN	Tamil	partial	node	7953367185	கிராம நிர்வாக அலுவலர் தண்டலம்
in-tamil-partial-0000000057	உழைப்பாளி மருத்துவமனை	13.0487242	80.2036274	noisy	IN	Tamil	partial	node	8108467017	உழைப்பாளி மருத்துவமனை
in-tamil-partial-0000000058	புதுச்சேரி பாப்ஸ்கோ நியாயவிலை கடை எண் -202	12.029167000000001	79.86390580000001	noisy	IN	Tamil	partial	node	8446025272	புதுச்சேரி பாப்ஸ்கோ நியாயவிலை கடை எண் -202
in-tamil-partial-0000000059	அங்கன்வாடி	12.028535900000001	79.86555010000001	noisy	IN	Tamil	partial	node	8446064284	அங்கன்வாடி
in-tamil-partial-0000000060	சாய்பாபா கோயில்	12.0312344	79.8660431	noisy	IN	Tamil	partial	node	8446067053	சாய்பாபா கோயில்
in-tamil-partial-0000000061	அருள்மிகு காந்தாரி அம்மன் ஆலயம்	12.0289514	79.86655540000001	noisy	IN	Tamil	partial	node	8446071654	அருள்மிகு காந்தாரி அம்மன் ஆலயம்
in-tamil-partial-0000000062	புதுவை அரசு வருவாய் மற்றும் பேரிடர் மேலாண்மை துறை காலப்பட்டு கிராமம் நிர்வாக அலுவலர்கள் அலுவலகம்	12.030357100000002	79.86562190000001	noisy	IN	Tamil	partial	node	8446075833	புதுவை அரசு வருவாய் மற்றும் பேரிடர் மேலாண்மை துறை காலப்பட்டு கிராமம் நிர்வாக அலுவலர்கள் அலுவலகம்
in-tamil-partial-0000000063	Kalapet PACCS limited, காலாப்பட்டு தொடக்க வேளாண்மை கூட்டுறவு கடன் சங்கம் லிட். பி.96	12.031153900000001	79.86601780000001	noisy	IN	Tamil	partial	node	8446077568	Kalapet PACCS limited, காலாப்பட்டு தொடக்க வேளாண்மை கூட்டுறவு கடன் சங்கம் லிட். பி.96
in-tamil-partial-0000000064	கால்நடை சிறு மருந்தகம் புதிய கட்டிடம்	12.032210300000001	79.86630120000001	noisy	IN	Tamil	partial	node	8446094019	கால்நடை சிறு மருந்தகம் புதிய கட்டிடம்
in-tamil-partial-0000000065	காலாபட் அஞ்சல் அலுவலகம்	12.0317938	79.86659300000001	noisy	IN	Tamil	partial	node	8446097127	காலாபட் அஞ்சல் அலுவலகம்
in-tamil-partial-0000000066	சுனாமி நகர்	9.0752512	78.35095170000001	noisy	IN	Tamil	partial	node	9088574925	சுனாமி நகர்
in-tamil-partial-0000000067	தமிழ்நேரம், வேலூர்	12.952715900000001	79.13595090000001	clean	IN	Tamil	partial	node	9091390720	தமிழ்நேரம்
in-tamil-partial-0000000068	புத்தூர்	10.814917300000001	78.6774838	noisy	IN	Tamil	partial	node	9152559640	புத்தூர்
in-tamil-partial-0000000069	அமிசியா கவுண்டணூர்	10.5444289	77.0666913	noisy	IN	Tamil	partial	node	9236983934	அமிசியா கவுண்டணூர்
in-tamil-partial-0000000070	நல்லூர்	10.566098	77.0787227	noisy	IN	Tamil	partial	node	9236983986	நல்லூர்
in-tamil-partial-0000000071	பொன்னாண்டா கவுண்டணூர்	10.5696597	77.0631907	noisy	IN	Tamil	partial	node	9236984000	பொன்னாண்டா கவுண்டணூர்
in-tamil-partial-0000000072	பருத்தியார்	10.5378024	77.0705145	noisy	IN	Tamil	partial	node	9237456657	பருத்தியார்
in-tamil-partial-0000000073	ஆண்டிகூட	10.5336692	77.0769661	noisy	IN	Tamil	partial	node	9237456688	ஆண்டிகூட
in-tamil-partial-0000000074	இராவணபுரம்	10.5356599	77.09483440000001	noisy	IN	Tamil	partial	node	9237456717	இராவணபுரம்
in-tamil-partial-0000000075	C.S.I Church Chekkittavilai சி.எஸ்.ஐ சர்ச் செக்கிட்டவிலை	8.2741355	77.25374380000001	noisy	IN	Tamil	partial	node	9339677762	C.S.I Church Chekkittavilai சி.எஸ்.ஐ சர்ச் செக்கிட்டவிலை
in-tamil-partial-0000000076	Sacred Heart Church சேக்ரெட் ஹார்ட் சர்ச், Marthandam	8.2719742	77.24993380000001	noisy	IN	Tamil	partial	node	9342794115	Sacred Heart Church சேக்ரெட் ஹார்ட் சர்ச்
in-tamil-partial-0000000077	மனித நேய மக்கள் கட்சி தலைமை அலுவலகம்	13.098322000000001	80.29171140000001	noisy	IN	Tamil	partial	node	9360052318	மனித நேய மக்கள் கட்சி தலைமை அலுவலகம்
in-tamil-partial-0000000078	மந்தை கருப்பு கோவில், புதுப்பட்டி, வீரத்தின் அடையாளம் புதுப்பட்டி	10.0076193	78.4515191	noisy	IN	Tamil	partial	node	9381281247	மந்தை கருப்பு கோவில், புதுப்பட்டி
in-tamil-partial-0000000079	பாலவிநாயகர் கோவில், புதுப்பட்டி, Madurai	10.0079724	78.4515744	noisy	IN	Tamil	partial	node	9381295218	பாலவிநாயகர் கோவில், புதுப்பட்டி
in-tamil-partial-0000000080	பாலிக்காடு	11.415022	77.8408873	noisy	IN	Tamil	partial	node	9427175500	பாலிக்காடு
in-tamil-partial-0000000081	கருவேப்பம்பட்டி பிரிவு	11.404155300000001	77.8818991	noisy	IN	Tamil	partial	node	9430569093	கருவேப்பம்பட்டி பிரிவு
in-tamil-partial-0000000082	அரசு பெண்கள் மேல்நிலைப் பள்ளி	11.3844247	77.8949053	noisy	IN	Tamil	partial	node	9430679863	அரசு பெண்கள் மேல்நிலைப் பள்ளி
in-tamil-partial-0000000083	கடப்பங்காடு	11.405900200000001	77.8580745	noisy	IN	Tamil	partial	node	9430679875	கடப்பங்காடு
in-tamil-partial-0000000084	ஶ்ரீ ஜானகி ராம்	9.9357051	78.1361966	noisy	IN	Tamil	partial	node	9776942919	ஶ்ரீ ஜானகி ராம்
in-tamil-partial-0000000085	ஹெச்பி பெட்ரோல் பங்க்	9.9444531	78.1541466	noisy	IN	Tamil	partial	node	9859758917	ஹெச்பி பெட்ரோல் பங்க்
in-tamil-partial-0000000086	பேஷன் ஹேர் ஸ்டைலர் சலூன்	10.7847419	78.6922581	noisy	IN	Tamil	partial	node	10203814917	பேஷன் ஹேர் ஸ்டைலர் சலூன்
in-tamil-partial-0000000087	மாற்று திறனாளிகளுக்கான மரப்பாதை	13.0490081	80.28115070000001	noisy	IN	Tamil	partial	node	10287777410	மாற்று திறனாளிகளுக்கான மரப்பாதை
in-tamil-partial-0000000088	வக்ஃப் இல்லம்	13.098002800000001	80.29233590000001	noisy	IN	Tamil	partial	node	10687917005	வக்ஃப் இல்லம்
in-tamil-partial-0000000089	அவுட்லைன்ஸ் சலோன் & டாட்டூஸ்	9.9166688	78.1346358	noisy	IN	Tamil	partial	node	10711690606	அவுட்லைன்ஸ் சலோன் & டாட்டூஸ்
in-tamil-partial-0000000090	சுகன்யா பரோட்டா கடை	9.9112404	78.1197818	noisy	IN	Tamil	partial	node	11361661169	சுகன்யா பரோட்டா கடை
in-tamil-partial-0000000091	சின்ன தும்கல் நீர் வீழ்ச்சி (thumkal water falls), Pennagaram	12.171014300000001	77.9150371	noisy	IN	Tamil	partial	node	11459328992	சின்ன தும்கல் நீர் வீழ்ச்சி (thumkal water falls)
in-tamil-partial-0000000092	சௌராஷ்டிரா பெண்கள் கல்லூரி	9.902552400000001	78.0724905	noisy	IN	Tamil	partial	node	11477291172	சௌராஷ்டிரா பெண்கள் கல்லூரி
in-tamil-partial-0000000093	கோபுரம் சினிமாஸ்	9.9371361	78.1219592	noisy	IN	Tamil	partial	node	11519486369	கோபுரம் சினிமாஸ்
in-tamil-partial-0000000094	சன மொபைல்ஸ்	9.914879500000001	78.11780300000001	noisy	IN	Tamil	partial	node	11527109973	சன மொபைல்ஸ்
in-tamil-partial-0000000095	பொன்வேலன் சைக்கிள் மார்ட்	9.9194794	78.1162659	noisy	IN	Tamil	partial	node	11563762370	பொன்வேலன் சைக்கிள் மார்ட்
in-tamil-partial-0000000096	அம்மன் சைவ உணவகம்	9.914106100000001	78.143241	noisy	IN	Tamil	partial	node	11578547773	அம்மன் சைவ உணவகம்
in-tamil-partial-0000000097	ஹோட்டல் ஸ்ரீ சபரீஸ்	9.9135155	78.1444601	noisy	IN	Tamil	partial	node	11578559073	ஹோட்டல் ஸ்ரீ சபரீஸ்
in-tamil-partial-0000000098	மகா மெடிக்கல்ஸ்	9.914400500000001	78.1330281	noisy	IN	Tamil	partial	node	11578562171	மகா மெடிக்கல்ஸ்
in-tamil-partial-0000000099	விருதுநகர் இந்து நாடார்கள் செந்திக்குமார நாடார் கல்லூரி (தன்னாட்சி)	9.5775127	77.974046	noisy	IN	Tamil	partial	node	11607418070	விருதுநகர் இந்து நாடார்கள் செந்திக்குமார நாடார் கல்லூரி (தன்னாட்சி)
in-tamil-partial-0000000100	பாண்டியன் கரும்பு சாறு	9.915724200000001	78.1250807	noisy	IN	Tamil	partial	node	11633983269	பாண்டியன் கரும்பு சாறு
in-tamil-partial-0000000101	லட்சுமி ஸ்டுடியோ	9.9216248	78.125005	noisy	IN	Tamil	partial	node	11694194269	லட்சுமி ஸ்டுடியோ
in-tamil-partial-0000000102	Stats Perform India Pvt Ltd - ஸ்டேட்ஸ் பெர்பார்ம் இந்தியா ப்வ்ட் லட, Chennai	13.0568904	80.25662290000001	noisy	IN	Tamil	partial	node	11703392922	Stats Perform India Pvt Ltd - ஸ்டேட்ஸ் பெர்பார்ம் இந்தியா ப்வ்ட் லட
in-tamil-partial-0000000103	SKB Vidhyashram Play School - எஸ்கேபி வித்யாஸ்ரம் பிளே ஸ்கூல், Chennai	12.9218101	80.0925259	clean	IN	Tamil	partial	node	11703493086	SKB Vidhyashram Play School - எஸ்கேபி வித்யாஸ்ரம் பிளே ஸ்கூல்
in-tamil-partial-0000000104	YAA MOHIDEEN BIRYANI Tambaram - யா மொகிதீன் பிரியாணி தாம்பரம், Chennai	12.9219301	80.09434320000001	clean	IN	Tamil	partial	node	11703874549	YAA MOHIDEEN BIRYANI Tambaram - யா மொகிதீன் பிரியாணி தாம்பரம்
in-tamil-partial-0000000105	Fit & Fast - ஃபிட் & பாஸ்ட், Chennai	12.922001600000002	80.09463380000001	clean	IN	Tamil	partial	node	11703890135	Fit & Fast - ஃபிட் & பாஸ்ட்
in-tamil-partial-0000000106	Krishna Net Cafe - கிருஷ்ணா நெட் கஃபே, Chennai	12.922115600000001	80.09408040000001	clean	IN	Tamil	partial	node	11703916205	Krishna Net Cafe - கிருஷ்ணா நெட் கஃபே
in-tamil-partial-0000000107	AKR Brothers Biriyani & tiffin center - கர் பிரதர்ஸ் பிரியாணி & டிஃபன் சென்டர், Chennai	12.9221509	80.09335080000001	noisy	IN	Tamil	partial	node	11703955527	AKR Brothers Biriyani & tiffin center - கர் பிரதர்ஸ் பிரியாணி & டிஃபன் சென்டர்
in-tamil-partial-0000000108	Akshaya Hotel - அக்ஷய ஹோட்டல், Chennai	12.922409100000001	80.0947871	noisy	IN	Tamil	partial	node	11704001080	Akshaya Hotel - அக்ஷய ஹோட்டல்
in-tamil-partial-0000000109	Lakshmi Shankar Unavagam - லக்ஷ்மி ஷங்கர் உணவகம், Chennai	12.9220176	80.0946993	clean	IN	Tamil	partial	node	11704019186	Lakshmi Shankar Unavagam - லக்ஷ்மி ஷங்கர் உணவகம்
in-tamil-partial-0000000110	The Great Lakshmi Ganapathi Temple - கிரேட் லட்சுமி கணபதி கோயில், Chennai	12.9229947	80.0930055	noisy	IN	Tamil	partial	node	11704042281	The Great Lakshmi Ganapathi Temple - கிரேட் லட்சுமி கணபதி கோயில்
in-tamil-partial-0000000111	சுஷி ஹூண்டாய், கப்பலூர்	9.8654609	78.02338680000001	noisy	IN	Tamil	partial	node	11749622569	சுஷி ஹூண்டாய், கப்பலூர்
in-tamil-partial-0000000112	மதுரை பெஸ்ட் முனியாண்டி விலாஸ்	9.9445721	78.15468390000001	noisy	IN	Tamil	partial	node	11896761470	மதுரை பெஸ்ட் முனியாண்டி விலாஸ்
in-tamil-partial-0000000113	மதுரை பன் பரோட்டா கடை	9.926451100000001	78.14254360000001	noisy	IN	Tamil	partial	node	11921888469	மதுரை பன் பரோட்டா கடை
in-tamil-partial-0000000114	மதுராஸ் தோசை கம்பெனி	9.9300899	78.1486969	noisy	IN	Tamil	partial	node	11927753669	மதுராஸ் தோசை கம்பெனி
in-tamil-partial-0000000115	தி சாக்லேட் ரூம்	9.9328558	78.1488645	noisy	IN	Tamil	partial	node	11927789069	தி சாக்லேட் ரூம்
in-tamil-partial-0000000116	ஸ்ரீ காமாட்சி மஹால்	9.913953300000001	78.14173810000001	noisy	IN	Tamil	partial	node	11929962869	ஸ்ரீ காமாட்சி மஹால்
in-tamil-partial-0000000117	அனந்த & அனந்த - காமராஜர் சாலை பிராஞ்ச்	9.9176821	78.127397	noisy	IN	Tamil	partial	node	11983102369	அனந்த & அனந்த - காமராஜர் சாலை பிராஞ்ச்
in-tamil-partial-0000000118	ஹோட்டல் தி மெட்ரோபோல்	9.936497300000001	78.1419525	noisy	IN	Tamil	partial	node	12026114169	ஹோட்டல் தி மெட்ரோபோல்
in-tamil-partial-0000000119	மாவட்ட பதிவாளர் அலுவலகம், மதுரை	9.9152435	78.1248451	noisy	IN	Tamil	partial	node	12089112770	மாவட்ட பதிவாளர் அலுவலகம், மதுரை
in-tamil-partial-0000000120	ஸ்ரீ சரவணா பேக்கரிஸ்	9.9201876	78.12524900000001	noisy	IN	Tamil	partial	node	12157827001	ஸ்ரீ சரவணா பேக்கரிஸ்
in-tamil-partial-0000000121	Vinayagar Temple,Balaji Nagar,kovil Palayam விநாயகர் டெம்பிள்,பாலாஜி நகர்,கோவில் பாளையம், coimbatore	11.1367043	77.04006150000001	clean	IN	Tamil	partial	node	12168348720	Vinayagar Temple,Balaji Nagar,kovil Palayam விநாயகர் டெம்பிள்,பாலாஜி நகர்,கோவில் பாளையம்
in-tamil-partial-0000000122	கிருஷ்ணன் மெஸ்	9.9136442	78.1438085	noisy	IN	Tamil	partial	node	12307991201	கிருஷ்ணன் மெஸ்
in-tamil-partial-0000000123	யோகி வேமனா உயர்நிலை பள்ளி	12.7949558	77.856243	noisy	IN	Tamil	partial	node	12347796201	யோகி வேமனா உயர்நிலை பள்ளி
in-tamil-partial-0000000124	ஸ்ரீ அனந்தீஸ்வரர் கோவில், Chennasanthiram	12.779673200000001	77.86934600000001	noisy	IN	Tamil	partial	node	12347817601	ஸ்ரீ அனந்தீஸ்வரர் கோவில்
in-tamil-partial-0000000125	பாகலூர் பேருந்து நிலையம், Bagalur	12.830318700000001	77.866158	noisy	IN	Tamil	partial	node	12350925201	பாகலூர் பேருந்து நிலையம்
in-tamil-partial-0000000126	துளசி பார்மசி	12.7457796	77.8339248	noisy	IN	Tamil	partial	node	12398998001	துளசி பார்மசி
in-tamil-partial-0000000127	கிருஷ்ணன் மட்டன் ஸ்டால் & பிராய்லர்	9.9227108	78.1251747	noisy	IN	Tamil	partial	node	12465669004	கிருஷ்ணன் மட்டன் ஸ்டால் & பிராய்லர்
in-tamil-partial-0000000128	விக்டோரியா பள்ளி CBSE	8.8076407	78.1611417	noisy	IN	Tamil	partial	node	12477693601	விக்டோரியா பள்ளி CBSE
in-tamil-partial-0000000129	கறி கஞ்சி	9.9345224	78.1361957	noisy	IN	Tamil	partial	node	12529266902	கறி கஞ்சி
in-tamil-partial-0000000130	சிவஜெய மஹால்	9.9357374	78.0385794	noisy	IN	Tamil	partial	node	12550742901	சிவஜெய மஹால்
in-tamil-partial-0000000131	முத்து தங்கம் கல்யாண மஹால்	9.9129261	78.1413686	noisy	IN	Tamil	partial	node	12650159001	முத்து தங்கம் கல்யாண மஹால்
in-tamil-partial-0000000132	அரசு மருத்துவமனை - முத்துப்பேட்டை	10.399673	79.4966964	noisy	IN	Tamil	partial	node	12705210701	அரசு மருத்துவமனை - முத்துப்பேட்டை
in-tamil-partial-0000000133	சந்தை	10.4001277	79.49729500000001	noisy	IN	Tamil	partial	node	12705215006	சந்தை
in-tamil-partial-0000000134	பி டி ஆர் டிபன் சென்டர்	9.9171008	78.133082	noisy	IN	Tamil	partial	node	12760481601	பி டி ஆர் டிபன் சென்டர்
in-tamil-partial-0000000135	தமிழ்நாடு செய்தித்தாள் காகித நிருவனம்	13.011056300000002	80.2185774	noisy	IN	Tamil	partial	node	12773528701	தமிழ்நாடு செய்தித்தாள் காகித நிருவனம்
in-tamil-partial-0000000136	எஸ். எஸ். காப்பி பார்	9.920988900000001	78.12505180000001	noisy	IN	Tamil	partial	node	12858165302	எஸ். எஸ். காப்பி பார்
in-tamil-partial-0000000137	Siddhivalaakam சித்திவளாகம்	11.5192215	79.5296989	noisy	IN	Tamil	partial	node	12916325450	Siddhivalaakam சித்திவளாகம்
in-tamil-partial-0000000138	Siddhivalaakam சித்திவளாகம்	11.5192215	79.5296989	noisy	IN	Tamil	partial	node	12916578064	Siddhivalaakam சித்திவளாகம்
in-tamil-partial-0000000139	Karungulzhi வள்ளலார் திருக்கோயில் - தண்ணீரில் விளக்கேற்றிய இல்லம், கருங்குழி	11.5192438	79.54394190000001	noisy	IN	Tamil	partial	node	12917319402	Karungulzhi வள்ளலார் திருக்கோயில் - தண்ணீரில் விளக்கேற்றிய இல்லம், கருங்குழி
in-tamil-partial-0000000140	அபூர்வ ஸ்வீட்ஸ் & பேக்கரி வி.ராஜசேகர்	11.628417800000001	79.6692857	noisy	IN	Tamil	partial	node	12923582401	அபூர்வ ஸ்வீட்ஸ் & பேக்கரி வி.ராஜசேகர்
in-tamil-partial-0000000141	திருமலை பவன் உயர்தர அசைவ உணவகம்	11.746574500000001	79.7482525	noisy	IN	Tamil	partial	node	12923691908	திருமலை பவன் உயர்தர அசைவ உணவகம்
in-tamil-partial-0000000142	க்லடிஸ்	9.9281345	78.0980346	noisy	IN	Tamil	partial	node	13006321201	க்லடிஸ்
in-tamil-partial-0000000143	புற டிஃபன் சென்டர்	9.9118607	78.11589760000001	noisy	IN	Tamil	partial	node	13008673605	புற டிஃபன் சென்டர்
in-tamil-partial-0000000144	ஶ்ரீ ராமலக்ஷ்மண அயன் ஒர்க்ஸ்	9.913259	78.11977420000001	noisy	IN	Tamil	partial	node	13008756501	ஶ்ரீ ராமலக்ஷ்மண அயன் ஒர்க்ஸ்
in-tamil-partial-0000000145	ஹரிஷ் அடுமனை இனிப்பகம்	9.917908800000001	78.1236476	noisy	IN	Tamil	partial	node	13013878401	ஹரிஷ் அடுமனை இனிப்பகம்
in-tamil-partial-0000000146	மங்கை மாகாளி கோயில்	9.3182845	78.7403455	noisy	IN	Tamil	partial	node	13046162302	மங்கை மாகாளி கோயில்
in-tamil-partial-0000000147	ஹட்சன் ஸ்டோர்	9.5496195	78.58826020000001	noisy	IN	Tamil	partial	node	13046163803	ஹட்சன் ஸ்டோர்
in-tamil-partial-0000000148	Karthik Store (a) மாணிக்கம் மளிகை, Singalandapuram	11.4165583	78.22340650000001	clean	IN	Tamil	partial	node	13137815676	Karthik Store (a) மாணிக்கம் மளிகை
in-tamil-partial-0000000149	நம்ம நக்கம்பாடி	11.263334200000001	79.1571653	noisy	IN	Tamil	partial	node	13245734416	நம்ம நக்கம்பாடி
in-tamil-partial-0000000150	தின்னை மெஸ்	13.027376	80.254007	noisy	IN	Tamil	partial	node	13253593001	தின்னை மெஸ்
in-tamil-partial-0000000151	எம தர்மராஜா  கோட்டை (கோவில் )   Yama Dharmaraja Kottai/Temple  (எமன்,காலன் &தூதன்  கோவில் )   (Yaman, Kala & Thoothan temple), Terku Devadanam	9.379141	77.4399906	noisy	IN	Tamil	partial	node	13313072644	எம தர்மராஜா  கோட்டை (கோவில் )   Yama Dharmaraja Kottai/Temple  (எமன்,காலன் &தூதன்  கோவில் )   (Yaman, Kala & Thoothan temple)
in-tamil-partial-0000000152	நீல்கிரீஸ்	9.9312267	78.1483243	noisy	IN	Tamil	partial	node	13319098402	நீல்கிரீஸ்
in-tamil-partial-0000000153	க்ஸ் ஸ்கேன்	9.9234057	78.142086	noisy	IN	Tamil	partial	node	13319231202	க்ஸ் ஸ்கேன்
in-tamil-partial-0000000154	ஜேபி மருந்தகம்	9.914851800000001	78.11727780000001	noisy	IN	Tamil	partial	node	13319274401	ஜேபி மருந்தகம்
in-tamil-partial-0000000155	ஈகிள்	9.9224598	78.1249099	noisy	IN	Tamil	partial	node	13329680801	ஈகிள்
in-tamil-partial-0000000156	வேர்ட்ஸ் & வோர்த்ஸ் புக்ஸ் பிரைவட் லிமிடெட்	12.996138	80.2679519	noisy	IN	Tamil	partial	node	13375180001	வேர்ட்ஸ் & வோர்த்ஸ் புக்ஸ் பிரைவட் லிமிடெட்
in-tamil-partial-0000000157	அருணாசலம் கமலாம்பாள்	9.9142436	78.141655	noisy	IN	Tamil	partial	node	13375580616	அருணாசலம் கமலாம்பாள்
in-tamil-partial-0000000158	ஜேபி பார்மசி	9.921443100000001	78.12527080000001	noisy	IN	Tamil	partial	node	13380652901	ஜேபி பார்மசி
in-tamil-partial-0000000159	கவண் மருத்துவமனை	12.0658594	78.4723494	noisy	IN	Tamil	partial	node	13430865260	கவண் மருத்துவமனை
in-tamil-partial-0000000160	பார்த்திபனூர் வெள்ணையம்மாள்கோவில்	9.587625500000001	78.453985	noisy	IN	Tamil	partial	node	13629927901	பார்த்திபனூர் வெள்ணையம்மாள்கோவில்
in-tamil-partial-0000000161	மேக்ஸ்	9.9184412	78.0938242	noisy	IN	Tamil	partial	node	13641451602	மேக்ஸ்
in-tamil-partial-0000000162	லூயிஸ் பிலிப்	9.922645900000001	78.09423120000001	noisy	IN	Tamil	partial	node	13641492802	லூயிஸ் பிலிப்
in-tamil-partial-0000000163	பேமஸ் ஜிகர்தண்டா LLP	9.920850600000001	78.14859600000001	noisy	IN	Tamil	partial	node	13644626004	பேமஸ் ஜிகர்தண்டா LLP
in-tamil-partial-0000000164	இளந்திரைகொண்டான்	9.929118200000001	78.14333500000001	noisy	IN	Tamil	partial	node	13644637801	இளந்திரைகொண்டான்
in-tamil-partial-0000000165	மொஹைதீன் ஆண்டவர் ஆட்டோமொபைல்ஸ், இந்தியன் ஆயில் டீலர்	9.9247218	78.141491	noisy	IN	Tamil	partial	node	13644676101	மொஹைதீன் ஆண்டவர் ஆட்டோமொபைல்ஸ், இந்தியன் ஆயில் டீலர்
in-tamil-partial-0000000166	அருண் ஆட்டோமொபைல்ஸ்	9.938478700000001	78.1456611	noisy	IN	Tamil	partial	node	13644706101	அருண் ஆட்டோமொபைல்ஸ்
in-tamil-partial-0000000167	ஜவஹர்லால் நேரு ஸ்டேடியம், கோவை, Coimbatore			noisy	IN	Tamil	partial	relation	9099421	ஜவஹர்லால் நேரு ஸ்டேடியம், கோவை
in-tamil-partial-0000000168	Gulf of Mannar / මන්නාරම් බොක්ක / மன்னார் வளைகுடா			noisy	IN	Tamil	partial	relation	9328385	Gulf of Mannar / මන්නාරම් බොක්ක / மன்னார் வளைகுடா
in-tamil-partial-0000000169	3ஆம் தெரு, Thirumangalam, Chennai			noisy	IN	Tamil	partial	way	26970230	3ஆம் தெரு
in-tamil-partial-0000000170	4ஆம் தெரு, Thirumangalam, Chennai			noisy	IN	Tamil	partial	way	26970231	4ஆம் தெரு
in-tamil-partial-0000000171	2ஆம் தெரு, Thirumangalam, Chennai			noisy	IN	Tamil	partial	way	26970232	2ஆம் தெரு
in-tamil-partial-0000000172	1ஆம் தெரு, Thirumangalam, Chennai			noisy	IN	Tamil	partial	way	28087222	1ஆம் தெரு
in-tamil-partial-0000000173	அறிஞர் அண்ணா அரசு இந்திய,மருத்துவமனை,அரும்பாக்கம்,சென்னை-106			noisy	IN	Tamil	partial	way	100857284	அறிஞர் அண்ணா அரசு இந்திய,மருத்துவமனை,அரும்பாக்கம்,சென்னை-106
in-tamil-partial-0000000174	எக்ஸ்பிரஸ் அவென்யூ மால், Chennai			clean	IN	Tamil	partial	way	154030370	எக்ஸ்பிரஸ் அவென்யூ மால்
in-tamil-partial-0000000175	அமெரிக்கன் கல்லூரி , மதுரை			noisy	IN	Tamil	partial	way	186262500	அமெரிக்கன் கல்லூரி , மதுரை
in-tamil-partial-0000000176	ஸ்ட.ஜோசப்மிடில் ஸ்கூல்			noisy	IN	Tamil	partial	way	186788637	ஸ்ட.ஜோசப்மிடில் ஸ்கூல்
in-tamil-partial-0000000177	சைதாப்பேட்டை அரசு மருத்துவமனை			noisy	IN	Tamil	partial	way	214188197	சைதாப்பேட்டை அரசு மருத்துவமனை
in-tamil-partial-0000000178	நல்லபுள்ளி அம்மன் கோவில், Tiruchengode taluk			noisy	IN	Tamil	partial	way	306349075	நல்லபுள்ளி அம்மன் கோவில்
in-tamil-partial-0000000179	Masjid E Ilaahi மஸ்ஜிதே இலாஹி			noisy	IN	Tamil	partial	way	354810737	Masjid E Ilaahi மஸ்ஜிதே இலாஹி
in-tamil-partial-0000000180	தீக்கதிர், Saidapet, Chennai			noisy	IN	Tamil	partial	way	355079788	தீக்கதிர்
in-tamil-partial-0000000181	பாரதி புத்தகாலயம்			noisy	IN	Tamil	partial	way	355899052	பாரதி புத்தகாலயம்
in-tamil-partial-0000000182	பாடலீசுவரர் கோவில், Cuddalore			noisy	IN	Tamil	partial	way	360844396	பாடலீசுவரர் கோவில்
in-tamil-partial-0000000183	பாலவாக்கத்தம்மன் ஆலயம், பாலவாக்கம்			noisy	IN	Tamil	partial	way	397271847	பாலவாக்கத்தம்மன் ஆலயம்
in-tamil-partial-0000000184	திருவரங்கம் வட்டம் பட்டாம்பூச்சு பூங்கா, Tiruchirapalli			noisy	IN	Tamil	partial	way	399600018	திருவரங்கம் வட்டம் பட்டாம்பூச்சு பூங்கா
in-tamil-partial-0000000185	முருகன் கோவில்			noisy	IN	Tamil	partial	way	477709866	முருகன் கோவில்
in-tamil-partial-0000000186	சத்யம் கிட்னி கேர் சென்டர் Sathyam Kidney Care Centre, KNG Pudur Pirivu			clean	IN	Tamil	partial	way	508287899	சத்யம் கிட்னி கேர் சென்டர் Sathyam Kidney Care Centre
in-tamil-partial-0000000187	இபான்ட் ஜெயசூசி சர்ச் Infant Jesus church, KNG Pudur Pirivu			noisy	IN	Tamil	partial	way	508287900	இபான்ட் ஜெயசூசி சர்ச் Infant Jesus church
in-tamil-partial-0000000188	திரு உவரி சுயம்புலிங்க சுவாமி திருக்கோவில், Uvari			noisy	IN	Tamil	partial	way	548853275	திரு உவரி சுயம்புலிங்க சுவாமி திருக்கோவில்
in-tamil-partial-0000000189	மிக்கேல் அதிதூதர் கெபி, Mudalur			noisy	IN	Tamil	partial	way	572221493	மிக்கேல் அதிதூதர் கெபி
in-tamil-partial-0000000190	யோவான் ஆலயம், Mudalur			noisy	IN	Tamil	partial	way	572762916	யோவான் ஆலயம்
in-tamil-partial-0000000191	அருண் மருத்துவமனை			noisy	IN	Tamil	partial	way	740649101	அருண் மருத்துவமனை
in-tamil-partial-0000000192	Viranarayanan perumal temple (வீரநாராயண பெருமாள் கோயில்)			noisy	IN	Tamil	partial	way	767664626	Viranarayanan perumal temple (வீரநாராயண பெருமாள் கோயில்)
in-tamil-partial-0000000193	விஜய் நர்சிங் ஹோம்			noisy	IN	Tamil	partial	way	769386230	விஜய் நர்சிங் ஹோம்
in-tamil-partial-0000000194	தேனி ஆனந்தம் - சில்க்ஸ் & ரெடிமேட்ஸ்			noisy	IN	Tamil	partial	way	781364726	தேனி ஆனந்தம் - சில்க்ஸ் & ரெடிமேட்ஸ்
in-tamil-partial-0000000195	Kavaratty கவரட்டி			noisy	IN	Tamil	partial	way	790636805	Kavaratty கவரட்டி
in-tamil-partial-0000000196	அமிசியா கவுண்டணூர்			noisy	IN	Tamil	partial	way	1000697468	அமிசியா கவுண்டணூர்
in-tamil-partial-0000000197	நல்லூர்			noisy	IN	Tamil	partial	way	1000697470	நல்லூர்
in-tamil-partial-0000000198	பொன்னாண்டா கவுண்டணூர்			noisy	IN	Tamil	partial	way	1000697471	பொன்னாண்டா கவுண்டணூர்
in-tamil-partial-0000000199	அத்தனார்வரம்			noisy	IN	Tamil	partial	way	1000746157	அத்தனார்வரம்
in-tamil-partial-0000000200	பருத்தியார்			noisy	IN	Tamil	partial	way	1000746158	பருத்தியார்
in-tamil-partial-0000000201	ஆண்டிகூட			noisy	IN	Tamil	partial	way	1000746159	ஆண்டிகூட
in-tamil-partial-0000000202	இராவணபுரம்			noisy	IN	Tamil	partial	way	1000746160	இராவணபுரம்
in-tamil-partial-0000000203	Kalladikuttai - கல்லடிக்குட்டை			noisy	IN	Tamil	partial	way	1052369133	Kalladikuttai - கல்லடிக்குட்டை
in-tamil-partial-0000000204	பெரியக்கோட்டை			noisy	IN	Tamil	partial	way	1087921617	பெரியக்கோட்டை
in-tamil-partial-0000000205	கலைஞர் நூற்றாண்டு நூலகம்			noisy	IN	Tamil	partial	way	1154089610	கலைஞர் நூற்றாண்டு நூலகம்
in-tamil-partial-0000000206	குடியிருப்பு பகுதி			noisy	IN	Tamil	partial	way	1226210984	குடியிருப்பு பகுதி
in-tamil-partial-0000000207	ஆண்டவர் செக்கு ஆயில் ஸ்டோர்			noisy	IN	Tamil	partial	way	1232732276	ஆண்டவர் செக்கு ஆயில் ஸ்டோர்
in-tamil-reordered-0000000001	கண்ணன் நகர்	12.9699068	80.18931640000001	noisy	IN	Tamil	reordered	node	280510383	கண்ணன் நகர்
de-tamil-reordered-0000000002	Berlin, Willmanndamm 17, நாகம்மா புடவையகம்	52.4902201	13.361547600000002	clean	DE	Tamil	reordered	node	1713177124	நாகம்மா புடவையகம்
in-tamil-reordered-0000000003	Mettupalayam, மேட்டுப்பாளையம் உழவர் சந்தை	11.3010351	76.93741700000001	noisy	IN	Tamil	reordered	node	2320542332	மேட்டுப்பாளையம் உழவர் சந்தை
in-tamil-reordered-0000000004	Plot no 11, 80 Feet Rd, Vaigai Colony, Madurai, Tamil Nadu 625020 , அம்பிகா சினிமாஸ்	9.9184891	78.14823290000001	noisy	IN	Tamil	reordered	node	2430078677	அம்பிகா சினிமாஸ்
in-tamil-reordered-0000000005	Lock No 45, Mellur, Tallakulam, Madurai, Tamil Nadu. , இந்தியன் ஆயில்	9.9355411	78.13659390000001	noisy	IN	Tamil	reordered	node	2517281258	இந்தியன் ஆயில்
in-tamil-reordered-0000000006	குஞ்சுபலிகாடு	11.4363451	77.8655177	noisy	IN	Tamil	reordered	node	3114727956	குஞ்சுபலிகாடு
in-tamil-reordered-0000000007	வேங்கிபாளையம்	11.4232987	77.85752980000001	noisy	IN	Tamil	reordered	node	3145427782	வேங்கிபாளையம்
in-tamil-reordered-0000000008	புவனகிரி, Big Devangar Street , இரத்தினசாமி உதவி பெறும் நடுநிலை பள்ளி	11.4427423	79.6538799	noisy	IN	Tamil	reordered	node	3206045719	இரத்தினசாமி உதவி பெறும் நடுநிலை பள்ளி
in-tamil-reordered-0000000009	Chennai, Anna Salai (Mount Road) , சின்ன மலை Little Mount Metro	13.015576800000002	80.22503300000001	noisy	IN	Tamil	reordered	node	3264883515	சின்ன மலை Little Mount Metro
in-tamil-reordered-0000000010	Ooty, Club Road 176/A, தேனீ அருங்காட்சியகம், ஊட்டி	11.4131715	76.6968956	clean	IN	Tamil	reordered	node	3725644175	தேனீ அருங்காட்சியகம், ஊட்டி
in-tamil-reordered-0000000011	k.nerpugappatti, north oorani st 1142, சண்முகம் அமிர்தா இல்லம்	10.148003000000001	78.7736031	clean	IN	Tamil	reordered	node	4459315311	சண்முகம் அமிர்தா இல்லம்
in-tamil-reordered-0000000012	No.239, LIG Main Road, Anna Nagar, Sathamangalam, Madurai, Tamil Nadu 625020 239, அமிரதம் ஸ்வீட் ஹோம்	9.9212247	78.148381	noisy	IN	Tamil	reordered	node	4881692069	அமிரதம் ஸ்வீட் ஹோம்
in-tamil-reordered-0000000013	Cuddalore, Gundu Salai Rd, Dhanalakshmi Nagar Extension , Joint Director of Agriculture Complex விவசாயம் காம்ப்ளக்ஸ் இணை இயக்குநர்	11.7661668	79.7516782	noisy	IN	Tamil	reordered	node	5224226188	Joint Director of Agriculture Complex விவசாயம் காம்ப்ளக்ஸ் இணை இயக்குநர்
in-tamil-reordered-0000000014	Thirumangalam, Chennai, தேவி கருமாரியம்மன் கோவில்	13.084021000000002	80.1984073	noisy	IN	Tamil	reordered	node	5227394520	தேவி கருமாரியம்மன் கோவில்
in-tamil-reordered-0000000015	mes first street , அகத்தி இயற்கை சந்தை	12.9184894	80.1158905	noisy	IN	Tamil	reordered	node	5246751922	அகத்தி இயற்கை சந்தை
in-tamil-reordered-0000000016	Ayyampettai, சாவடி பஜார் , வாசவி மஹால்	10.8946562	79.18715730000001	noisy	IN	Tamil	reordered	node	5287634595	வாசவி மஹால்
in-tamil-reordered-0000000017	வெங்கட் நாராயணா தெரு , செ.தெ நாயகம் தியாகராய நகர் மேனிலைப் பள்ளி	13.0361057	80.2365642	noisy	IN	Tamil	reordered	node	5320053509	செ.தெ நாயகம் தியாகராய நகர் மேனிலைப் பள்ளி
in-tamil-reordered-0000000018	sivan koil st , Sivan koil (சிவன் கோயில்)	11.2989446	79.55345840000001	noisy	IN	Tamil	reordered	node	5336877633	Sivan koil (சிவன் கோயில்)
in-tamil-reordered-0000000019	Sankagiri Road , அரசு ஆண்கள் மேல்நிலைப் பள்ளி	11.385043900000001	77.89482790000001	noisy	IN	Tamil	reordered	node	5340680821	அரசு ஆண்கள் மேல்நிலைப் பள்ளி
in-tamil-reordered-0000000020	வீரத்தின் அடையாளம் புதுப்பட்டி	10.008072400000001	78.4507083	noisy	IN	Tamil	reordered	node	5434642693	வீரத்தின் அடையாளம் புதுப்பட்டி
in-tamil-reordered-0000000021	பகவந்தம் தெரு , குண்டூர் சுப்பையா பிள்ளை தி.நகர் பெண்கள் மேல் நிலைப்பள்ளி	13.0358756	80.23743950000001	noisy	IN	Tamil	reordered	node	5484076358	குண்டூர் சுப்பையா பிள்ளை தி.நகர் பெண்கள் மேல் நிலைப்பள்ளி
in-tamil-reordered-0000000022	61st Street, Ashok Nagar , கட்டணமில்லா கழிப்பிடம்	13.032666	80.2171155	noisy	IN	Tamil	reordered	node	5498746021	கட்டணமில்லா கழிப்பிடம்
in-tamil-reordered-0000000023	Mudalur, navamudalur , உபகார மாதா ஆலயம்	8.417445800000001	77.9457014	noisy	IN	Tamil	reordered	node	5502394124	உபகார மாதா ஆலயம்
in-tamil-reordered-0000000024	Veeraraghava Street (Big St) 25,53, ஹிபா சிறப்பு மருத்துவமனை	13.0615207	80.27574700000001	noisy	IN	Tamil	reordered	node	5547728024	ஹிபா சிறப்பு மருத்துவமனை
in-tamil-reordered-0000000025	செம்மஞ்சேரி , பாரதி அறிவுடைமை பொது நூலகம்	12.862919100000001	80.2145177	noisy	IN	Tamil	reordered	node	5715499085	பாரதி அறிவுடைமை பொது நூலகம்
in-tamil-reordered-0000000026	Roman Rolan street , எழுச்சி தமிழர் தானி ஓட்டுநர் நலச் சங்கம்	11.9257152	79.83295150000001	noisy	IN	Tamil	reordered	node	5762145081	எழுச்சி தமிழர் தானி ஓட்டுநர் நலச் சங்கம்
in-tamil-reordered-0000000027	Kallakurichi, ஆண்டி கோனார் இல்லம் (மேல் மாடி) , அம்மாபேட்டை கல்வி அறக்கட்டளை	11.790370800000002	78.8644154	noisy	IN	Tamil	reordered	node	5775337273	அம்மாபேட்டை கல்வி அறக்கட்டளை
in-tamil-reordered-0000000028	Velachery Tambaram Road , ரிலையன்ஸ் ட்ரெண்ட்ஸ்	12.9287702	80.20291230000001	noisy	IN	Tamil	reordered	node	5802044855	ரிலையன்ஸ் ட்ரெண்ட்ஸ்
in-tamil-reordered-0000000029	Perumal Avenue , ஃபிட் ராக் அரினா - பள்ளிக்கரணை	12.923390600000001	80.2082448	noisy	IN	Tamil	reordered	node	5802051053	ஃபிட் ராக் அரினா - பள்ளிக்கரணை
in-tamil-reordered-0000000030	Sardar Patel Road , தமிழ்நாடு ராஜ் பவன்	13.005915600000002	80.2265244	noisy	IN	Tamil	reordered	node	5851464592	தமிழ்நாடு ராஜ் பவன்
in-tamil-reordered-0000000031	Appucoloney,thiruvamayur H42/1, சட்ட பஞ்சாயத்து இயக்கம்	12.987604500000002	80.2542499	noisy	IN	Tamil	reordered	node	5892458785	சட்ட பஞ்சாயத்து இயக்கம்
in-tamil-reordered-0000000032	Kanchipuram - Vandavasi Road , நீயு கோல்டன் பேக்கரி & இனிப்பு	12.505822400000001	79.6037671	noisy	IN	Tamil	reordered	node	5910777885	நீயு கோல்டன் பேக்கரி & இனிப்பு
in-tamil-reordered-0000000033	Bazar street,mylopore , அக்பர் மருந்து மில்	13.034794100000001	80.27374900000001	noisy	IN	Tamil	reordered	node	5918435985	அக்பர் மருந்து மில்
in-tamil-reordered-0000000034	market road, Shanmugam Road 20, சரவணா ஸ்டோர்	12.92651	80.1154296	noisy	IN	Tamil	reordered	node	5989898292	சரவணா ஸ்டோர்
in-tamil-reordered-0000000035	Thiruvalluvar Street 25/09, சங்கர குட்றாலிங்கம்	12.926682300000001	80.1312589	noisy	IN	Tamil	reordered	node	5989898293	சங்கர குட்றாலிங்கம்
in-tamil-reordered-0000000036	Burma Colony, Perungudi, Chennai , வி.பி.சிந்தன் இல்லம் (CITU Perungudi Office)	12.9593035	80.2474059	noisy	IN	Tamil	reordered	node	6010166735	வி.பி.சிந்தன் இல்லம் (CITU Perungudi Office)
in-tamil-reordered-0000000037	Grand Southern Trunk Road , பயணவழி உணவகம்	12.6448611	79.939902	noisy	IN	Tamil	reordered	node	6031421185	பயணவழி உணவகம்
in-tamil-reordered-0000000038	Chengalvarayan Street , தமிழ்நாடு அரசு இசேவை மையம்	13.0537796	80.2743911	noisy	IN	Tamil	reordered	node	6050605286	தமிழ்நாடு அரசு இசேவை மையம்
in-tamil-reordered-0000000039	coimbatore, மருதமலை பேருந்து நிலையம்	11.043498900000001	76.86391900000001	noisy	IN	Tamil	reordered	node	6143848628	மருதமலை பேருந்து நிலையம்
in-tamil-reordered-0000000040	Vikram studio,7 W sivan koil st,vadapalni,chennai , பியுர் சினிமா	13.049054700000001	80.2099961	noisy	IN	Tamil	reordered	node	6153155685	பியுர் சினிமா
in-tamil-reordered-0000000041	Trichy Madurai Highway , மலையாண்டி விலாஸ்	10.751614100000001	78.6500039	noisy	IN	Tamil	reordered	node	6202885595	மலையாண்டி விலாஸ்
in-tamil-reordered-0000000042	Narashiman kovil opp 15, அம்மி தற்சார்பு சந்தை	10.9913936	76.9607627	noisy	IN	Tamil	reordered	node	6357493685	அம்மி தற்சார்பு சந்தை
in-tamil-reordered-0000000043	பாரதி வீதி 504, ஸ்ரீ கிருஷ்ணா டிபன் சென்டர்	11.9285204	79.8258484	noisy	IN	Tamil	reordered	node	6499865785	ஸ்ரீ கிருஷ்ணா டிபன் சென்டர்
in-tamil-reordered-0000000044	கண்டோன்மெண்ட்	10.8004792	78.6787267	noisy	IN	Tamil	reordered	node	6507644587	கண்டோன்மெண்ட்
in-tamil-reordered-0000000045	Jawaharlal Nehru Road, Anna Nagar West, Thirumangalam , திருமங்கலம்	13.090667400000001	80.1984558	noisy	IN	Tamil	reordered	node	6518463385	திருமங்கலம்
in-tamil-reordered-0000000046	CIT Colony 2nd Main Road , ரஹ்மத் பதிப்பகம்	13.042840400000001	80.2601928	noisy	IN	Tamil	reordered	node	6779400485	ரஹ்மத் பதிப்பகம்
in-tamil-reordered-0000000047	Thanikachalam Road , குவிகம்	13.035433000000001	80.23857770000001	noisy	IN	Tamil	reordered	node	6790108586	குவிகம்
in-tamil-reordered-0000000048	HIG 34, 80 Feet Rd, New LIG Colony, Anna Nagar, Madurai, Tamil Nadu 625020 , எஸ் பி மருத்துவமனை	9.9224443	78.1489693	noisy	IN	Tamil	reordered	node	6936708995	எஸ் பி மருத்துவமனை
in-tamil-reordered-0000000049	Marina Beach Road , சென்னை மெரினா கலங்கரை விளக்கம்	13.039631	80.2794168	noisy	IN	Tamil	reordered	node	7016742491	சென்னை மெரினா கலங்கரை விளக்கம்
in-tamil-reordered-0000000050	444, 9th Main Rd, Managiri, Madurai, Tamil Nadu 625020 444, பில்ஸ் பிஸ்ட்ரோ	9.932691400000001	78.1480993	noisy	IN	Tamil	reordered	node	7020233396	பில்ஸ் பிஸ்ட்ரோ
in-tamil-reordered-0000000051	பெருந்துறை சாலை , புத்தூர் பகுதி நேர நியாய விலைக் கடை	11.2639627	77.63172150000001	noisy	IN	Tamil	reordered	node	7170271857	புத்தூர் பகுதி நேர நியாய விலைக் கடை
in-tamil-reordered-0000000052	Periyar Street , Thanthai Periyar Memorial House தந்தை பெரியார் நினைவு இல்லம்	11.3396468	77.731671	noisy	IN	Tamil	reordered	node	7171213567	Thanthai Periyar Memorial House தந்தை பெரியார் நினைவு இல்லம்
in-tamil-reordered-0000000053	Perunthurai road , புத்தூர் பால் உற்பத்தியாளர்கள் கூட்டுறவு சங்கம்	11.2639578	77.63164660000001	noisy	IN	Tamil	reordered	node	7178583638	புத்தூர் பால் உற்பத்தியாளர்கள் கூட்டுறவு சங்கம்
in-tamil-reordered-0000000054	Mariamman Koil street Near Narasimmar Koil singirikoil, Singirikoil, Thavalakuppam, Tamil Nadu 112, ஸ்ரீ லக்ஷ்மி நரசிம்ஹ கோயில்	11.865383600000001	79.78112510000001	noisy	IN	Tamil	reordered	node	7202915724	ஸ்ரீ லக்ஷ்மி நரசிம்ஹ கோயில்
in-tamil-reordered-0000000055	VM St 430, அமுதம் பல்பொருள் சிறப்பு அங்காடி(சுய சேவை பிரிவு)	13.047425800000001	80.26861500000001	noisy	IN	Tamil	reordered	node	7953366985	அமுதம் பல்பொருள் சிறப்பு அங்காடி(சுய சேவை பிரிவு)
in-tamil-reordered-0000000056	Chennai - Bangalore , கிராம நிர்வாக அலுவலர் தண்டலம்	13.0144791	80.0035929	noisy	IN	Tamil	reordered	node	7953367185	கிராம நிர்வாக அலுவலர் தண்டலம்
in-tamil-reordered-0000000057	Arunachalam St , உழைப்பாளி மருத்துவமனை	13.0487242	80.2036274	noisy	IN	Tamil	reordered	node	8108467017	உழைப்பாளி மருத்துவமனை
in-tamil-reordered-0000000058	poongavanam Chettiar street , புதுச்சேரி பாப்ஸ்கோ நியாயவிலை கடை எண் -202	12.029167000000001	79.86390580000001	noisy	IN	Tamil	reordered	node	8446025272	புதுச்சேரி பாப்ஸ்கோ நியாயவிலை கடை எண் -202
in-tamil-reordered-0000000059	பூங்கவனம் செட்டியார் வீதி , அங்கன்வாடி	12.028535900000001	79.86555010000001	noisy	IN	Tamil	reordered	node	8446064284	அங்கன்வாடி
in-tamil-reordered-0000000060	தேரோடும் வீதி , சாய்பாபா கோயில்	12.0312344	79.8660431	noisy	IN	Tamil	reordered	node	8446067053	சாய்பாபா கோயில்
in-tamil-reordered-0000000061	காந்தாரி அம்மன் கோவில் வீதி , அருள்மிகு காந்தாரி அம்மன் ஆலயம்	12.0289514	79.86655540000001	noisy	IN	Tamil	reordered	node	8446071654	அருள்மிகு காந்தாரி அம்மன் ஆலயம்
in-tamil-reordered-0000000062	ettat civil street , புதுவை அரசு வருவாய் மற்றும் பேரிடர் மேலாண்மை துறை காலப்பட்டு கிராமம் நிர்வாக அலுவலர்கள் அலுவலகம்	12.030357100000002	79.86562190000001	noisy	IN	Tamil	reordered	node	8446075833	புதுவை அரசு வருவாய் மற்றும் பேரிடர் மேலாண்மை துறை காலப்பட்டு கிராமம் நிர்வாக அலுவலர்கள் அலுவலகம்
in-tamil-reordered-0000000063	தேரோடும் வீதி , Kalapet PACCS limited, காலாப்பட்டு தொடக்க வேளாண்மை கூட்டுறவு கடன் சங்கம் லிட். பி.96	12.031153900000001	79.86601780000001	noisy	IN	Tamil	reordered	node	8446077568	Kalapet PACCS limited, காலாப்பட்டு தொடக்க வேளாண்மை கூட்டுறவு கடன் சங்கம் லிட். பி.96
in-tamil-reordered-0000000064	வாணிதாசன் வீதி , கால்நடை சிறு மருந்தகம் புதிய கட்டிடம்	12.032210300000001	79.86630120000001	noisy	IN	Tamil	reordered	node	8446094019	கால்நடை சிறு மருந்தகம் புதிய கட்டிடம்
in-tamil-reordered-0000000065	பெருமாள் கோவில் தெரு , காலாபட் அஞ்சல் அலுவலகம்	12.0317938	79.86659300000001	noisy	IN	Tamil	reordered	node	8446097127	காலாபட் அஞ்சல் அலுவலகம்
in-tamil-reordered-0000000066	சுனாமி நகர்	9.0752512	78.35095170000001	noisy	IN	Tamil	reordered	node	9088574925	சுனாமி நகர்
in-tamil-reordered-0000000067	வேலூர், சுந்தரர் தெரு 28, தமிழ்நேரம்	12.952715900000001	79.13595090000001	clean	IN	Tamil	reordered	node	9091390720	தமிழ்நேரம்
in-tamil-reordered-0000000068	புத்தூர்	10.814917300000001	78.6774838	noisy	IN	Tamil	reordered	node	9152559640	புத்தூர்
in-tamil-reordered-0000000069	அமிசியா கவுண்டணூர்	10.5444289	77.0666913	noisy	IN	Tamil	reordered	node	9236983934	அமிசியா கவுண்டணூர்
in-tamil-reordered-0000000070	நல்லூர்	10.566098	77.0787227	noisy	IN	Tamil	reordered	node	9236983986	நல்லூர்
in-tamil-reordered-0000000071	பொன்னாண்டா கவுண்டணூர்	10.5696597	77.0631907	noisy	IN	Tamil	reordered	node	9236984000	பொன்னாண்டா கவுண்டணூர்
in-tamil-reordered-0000000072	பருத்தியார்	10.5378024	77.0705145	noisy	IN	Tamil	reordered	node	9237456657	பருத்தியார்
in-tamil-reordered-0000000073	ஆண்டிகூட	10.5336692	77.0769661	noisy	IN	Tamil	reordered	node	9237456688	ஆண்டிகூட
in-tamil-reordered-0000000074	இராவணபுரம்	10.5356599	77.09483440000001	noisy	IN	Tamil	reordered	node	9237456717	இராவணபுரம்
in-tamil-reordered-0000000075	Chekkittavilai , C.S.I Church Chekkittavilai சி.எஸ்.ஐ சர்ச் செக்கிட்டவிலை	8.2741355	77.25374380000001	noisy	IN	Tamil	reordered	node	9339677762	C.S.I Church Chekkittavilai சி.எஸ்.ஐ சர்ச் செக்கிட்டவிலை
in-tamil-reordered-0000000076	Marthandam, Palliyadi , Sacred Heart Church சேக்ரெட் ஹார்ட் சர்ச்	8.2719742	77.24993380000001	noisy	IN	Tamil	reordered	node	9342794115	Sacred Heart Church சேக்ரெட் ஹார்ட் சர்ச்
in-tamil-reordered-0000000077	Vadamaracoir Street 7, மனித நேய மக்கள் கட்சி தலைமை அலுவலகம்	13.098322000000001	80.29171140000001	noisy	IN	Tamil	reordered	node	9360052318	மனித நேய மக்கள் கட்சி தலைமை அலுவலகம்
in-tamil-reordered-0000000078	வீரத்தின் அடையாளம் புதுப்பட்டி, Sri Kakana Muthaiya Kovil Road , மந்தை கருப்பு கோவில், புதுப்பட்டி	10.0076193	78.4515191	noisy	IN	Tamil	reordered	node	9381281247	மந்தை கருப்பு கோவில், புதுப்பட்டி
in-tamil-reordered-0000000079	Madurai, வீரத்தின் அடையாளம் புதுப்பட்டி , பாலவிநாயகர் கோவில், புதுப்பட்டி	10.0079724	78.4515744	noisy	IN	Tamil	reordered	node	9381295218	பாலவிநாயகர் கோவில், புதுப்பட்டி
in-tamil-reordered-0000000080	பாலிக்காடு	11.415022	77.8408873	noisy	IN	Tamil	reordered	node	9427175500	பாலிக்காடு
in-tamil-reordered-0000000081	கருவேப்பம்பட்டி பிரிவு	11.404155300000001	77.8818991	noisy	IN	Tamil	reordered	node	9430569093	கருவேப்பம்பட்டி பிரிவு
in-tamil-reordered-0000000082	Sankagiri Road , அரசு பெண்கள் மேல்நிலைப் பள்ளி	11.3844247	77.8949053	noisy	IN	Tamil	reordered	node	9430679863	அரசு பெண்கள் மேல்நிலைப் பள்ளி
in-tamil-reordered-0000000083	கடப்பங்காடு	11.405900200000001	77.8580745	noisy	IN	Tamil	reordered	node	9430679875	கடப்பங்காடு
in-tamil-reordered-0000000084	Alagarkoil, East Coast Road, Chinna Chokikulam. , ஶ்ரீ ஜானகி ராம்	9.9357051	78.1361966	noisy	IN	Tamil	reordered	node	9776942919	ஶ்ரீ ஜானகி ராம்
in-tamil-reordered-0000000085	Melur Main Rd, Mattuthavani, Industrial Estate, Madurai, Tamil Nadu. , ஹெச்பி பெட்ரோல் பங்க்	9.9444531	78.1541466	noisy	IN	Tamil	reordered	node	9859758917	ஹெச்பி பெட்ரோல் பங்க்
in-tamil-reordered-0000000086	Mannarpuram , பேஷன் ஹேர் ஸ்டைலர் சலூன்	10.7847419	78.6922581	noisy	IN	Tamil	reordered	node	10203814917	பேஷன் ஹேர் ஸ்டைலர் சலூன்
in-tamil-reordered-0000000087	Marina Beach Road , மாற்று திறனாளிகளுக்கான மரப்பாதை	13.0490081	80.28115070000001	noisy	IN	Tamil	reordered	node	10287777410	மாற்று திறனாளிகளுக்கான மரப்பாதை
in-tamil-reordered-0000000088	Jafer Serang Street , வக்ஃப் இல்லம்	13.098002800000001	80.29233590000001	noisy	IN	Tamil	reordered	node	10687917005	வக்ஃப் இல்லம்
in-tamil-reordered-0000000089	199, First floor (Venus Electranic, Kamarajar Salai, Tamil Nadu 625009 199, அவுட்லைன்ஸ் சலோன் & டாட்டூஸ்	9.9166688	78.1346358	noisy	IN	Tamil	reordered	node	10711690606	அவுட்லைன்ஸ் சலோன் & டாட்டூஸ்
in-tamil-reordered-0000000090	W469+GVC, Kondaiyanaidu Ln, South Gate, Periyar, Madurai Main, Madurai, Tamil Nadu 625001 , சுகன்யா பரோட்டா கடை	9.9112404	78.1197818	noisy	IN	Tamil	reordered	node	11361661169	சுகன்யா பரோட்டா கடை
in-tamil-reordered-0000000091	Pennagaram, சின்ன தும்மல் நீர் வீழ்ச்சி Pennagaram, Road, Dhasampatti, Tamil Nadu , சின்ன தும்கல் நீர் வீழ்ச்சி (thumkal water falls)	12.171014300000001	77.9150371	noisy	IN	Tamil	reordered	node	11459328992	சின்ன தும்கல் நீர் வீழ்ச்சி (thumkal water falls)
in-tamil-reordered-0000000092	Vilachery Main Road, Pasumalai (P.O, Madurai, Tamil Nadu 625004) , சௌராஷ்டிரா பெண்கள் கல்லூரி	9.902552400000001	78.0724905	noisy	IN	Tamil	reordered	node	11477291172	சௌராஷ்டிரா பெண்கள் கல்லூரி
in-tamil-reordered-0000000093	50 Feet Rd, Sellur, Madurai, Tamil Nadu 625014 , கோபுரம் சினிமாஸ்	9.9371361	78.1219592	noisy	IN	Tamil	reordered	node	11519486369	கோபுரம் சினிமாஸ்
in-tamil-reordered-0000000094	203, S Masi St, near Patcharisikara Street, Periyar, Mahal, Madurai, Tamil Nadu 625001 203, சன மொபைல்ஸ்	9.914879500000001	78.11780300000001	noisy	IN	Tamil	reordered	node	11527109973	சன மொபைல்ஸ்
in-tamil-reordered-0000000095	Dhanappa Mudali Street, near Mohan Bhojnalaya Restuarant, Madurai Main, Madurai, Tamil Nadu 36, பொன்வேலன் சைக்கிள் மார்ட்	9.9194794	78.1162659	noisy	IN	Tamil	reordered	node	11563762370	பொன்வேலன் சைக்கிள் மார்ட்
in-tamil-reordered-0000000096	Kamarajar Salai, Pankajam Colony, Meenakshi Nagar, Madurai, Tamil Nadu 625009 , அம்மன் சைவ உணவகம்	9.914106100000001	78.143241	noisy	IN	Tamil	reordered	node	11578547773	அம்மன் சைவ உணவகம்
in-tamil-reordered-0000000097	1, Kamarajar Salai, Pankajam Colony, Madurai, Tamil Nadu 625009 1, ஹோட்டல் ஸ்ரீ சபரீஸ்	9.9135155	78.1444601	noisy	IN	Tamil	reordered	node	11578559073	ஹோட்டல் ஸ்ரீ சபரீஸ்
in-tamil-reordered-0000000098	Chairman Muthuramaiyer Rd, Navarathinapuram, Madurai, Tamil Nadu 43, மகா மெடிக்கல்ஸ்	9.914400500000001	78.1330281	noisy	IN	Tamil	reordered	node	11578562171	மகா மெடிக்கல்ஸ்
in-tamil-reordered-0000000099	3/151-1,College road, Anna Nagar, Virudhunagar, Tamil Nadu 626001 , விருதுநகர் இந்து நாடார்கள் செந்திக்குமார நாடார் கல்லூரி (தன்னாட்சி)	9.5775127	77.974046	noisy	IN	Tamil	reordered	node	11607418070	விருதுநகர் இந்து நாடார்கள் செந்திக்குமார நாடார் கல்லூரி (தன்னாட்சி)
in-tamil-reordered-0000000100	Palace Road, Mahal Area, Madurai Main, Madurai, Tamil Nadu 625001 , பாண்டியன் கரும்பு சாறு	9.915724200000001	78.1250807	noisy	IN	Tamil	reordered	node	11633983269	பாண்டியன் கரும்பு சாறு
in-tamil-reordered-0000000101	232, East Velt Street, Opp:Merina Hotel, Vetrilaipettai, 232, E Veli St, Madurai Main, Madurai, Tami 232, லட்சுமி ஸ்டுடியோ	9.9216248	78.125005	noisy	IN	Tamil	reordered	node	11694194269	லட்சுமி ஸ்டுடியோ
in-tamil-reordered-0000000102	Chennai, Madhar Sha Tower, Anna Salai, Thousand Lights East , Stats Perform India Pvt Ltd - ஸ்டேட்ஸ் பெர்பார்ம் இந்தியா ப்வ்ட் லட	13.0568904	80.25662290000001	noisy	IN	Tamil	reordered	node	11703392922	Stats Perform India Pvt Ltd - ஸ்டேட்ஸ் பெர்பார்ம் இந்தியா ப்வ்ட் லட
in-tamil-reordered-0000000103	Chennai, 2nd Main Rd, Moovendar Nagar, Bharathi Nagar, Tambaram, Old Perungalathur 28, SKB Vidhyashram Play School - எஸ்கேபி வித்யாஸ்ரம் பிளே ஸ்கூல்	12.9218101	80.0925259	clean	IN	Tamil	reordered	node	11703493086	SKB Vidhyashram Play School - எஸ்கேபி வித்யாஸ்ரம் பிளே ஸ்கூல்
in-tamil-reordered-0000000104	Chennai, Sriram nagar, Mudichur Rd, Ramani Nagar, West Tambaram, Tambaram, No. 15, YAA MOHIDEEN BIRYANI Tambaram - யா மொகிதீன் பிரியாணி தாம்பரம்	12.9219301	80.09434320000001	clean	IN	Tamil	reordered	node	11703874549	YAA MOHIDEEN BIRYANI Tambaram - யா மொகிதீன் பிரியாணி தாம்பரம்
in-tamil-reordered-0000000105	Chennai, Mudichur Rd, Ramani Nagar, West Tambaram, Tambaram No. 697, Fit & Fast - ஃபிட் & பாஸ்ட்	12.922001600000002	80.09463380000001	clean	IN	Tamil	reordered	node	11703890135	Fit & Fast - ஃபிட் & பாஸ்ட்
in-tamil-reordered-0000000106	Chennai, TTJK Complex - Mudichur - Sriperumbudur Rd, Jyothi Nagar, Tambaram No.674-A, Krishna Net Cafe - கிருஷ்ணா நெட் கஃபே	12.922115600000001	80.09408040000001	clean	IN	Tamil	reordered	node	11703916205	Krishna Net Cafe - கிருஷ்ணா நெட் கஃபே
in-tamil-reordered-0000000107	Chennai, 1st Main Road, Vettri Nagar, Bharathi Nagar, Tambaram , AKR Brothers Biriyani & tiffin center - கர் பிரதர்ஸ் பிரியாணி & டிஃபன் சென்டர்	12.9221509	80.09335080000001	noisy	IN	Tamil	reordered	node	11703955527	AKR Brothers Biriyani & tiffin center - கர் பிரதர்ஸ் பிரியாணி & டிஃபன் சென்டர்
in-tamil-reordered-0000000108	Chennai, W3CV+XWJ, 2nd St, Vettri Nagar, Jyothi Nagar, Tambaram , Akshaya Hotel - அக்ஷய ஹோட்டல்	12.922409100000001	80.0947871	noisy	IN	Tamil	reordered	node	11704001080	Akshaya Hotel - அக்ஷய ஹோட்டல்
in-tamil-reordered-0000000109	Chennai, Mudichur Rd, Ramani Nagar, Karummariamman Nagar, Vishnu Nagar, Tambaram 12, Lakshmi Shankar Unavagam - லக்ஷ்மி ஷங்கர் உணவகம்	12.9220176	80.0946993	clean	IN	Tamil	reordered	node	11704019186	Lakshmi Shankar Unavagam - லக்ஷ்மி ஷங்கர் உணவகம்
in-tamil-reordered-0000000110	Chennai, 1st Main Road, Bharathi Nagar, West Tambaram, The Great Lakshmi Ganapathi Temple - கிரேட் லட்சுமி கணபதி கோயில்	12.9229947	80.0930055	noisy	IN	Tamil	reordered	node	11704042281	The Great Lakshmi Ganapathi Temple - கிரேட் லட்சுமி கணபதி கோயில்
in-tamil-reordered-0000000111	B1 & B2, Industrial Estate, SIDCO, Kappalur, Tamil Nadu 625008 , சுஷி ஹூண்டாய், கப்பலூர்	9.8654609	78.02338680000001	noisy	IN	Tamil	reordered	node	11749622569	சுஷி ஹூண்டாய், கப்பலூர்
in-tamil-reordered-0000000112	SH 72, Chinna Chokikulam, Madurai, Tamil Nadu 625002 , மதுரை பெஸ்ட் முனியாண்டி விலாஸ்	9.9445721	78.15468390000001	noisy	IN	Tamil	reordered	node	11896761470	மதுரை பெஸ்ட் முனியாண்டி விலாஸ்
in-tamil-reordered-0000000113	Aavin Signal, Madurai - Kallal Rd, Managiri, Sathamangalam, Madurai, Tamil Nadu 625020 , மதுரை பன் பரோட்டா கடை	9.926451100000001	78.14254360000001	noisy	IN	Tamil	reordered	node	11921888469	மதுரை பன் பரோட்டா கடை
in-tamil-reordered-0000000114	134,80ft lakeview road, KK Nagar, Tamil Nadu 625020 , மதுராஸ் தோசை கம்பெனி	9.9300899	78.1486969	noisy	IN	Tamil	reordered	node	11927753669	மதுராஸ் தோசை கம்பெனி
in-tamil-reordered-0000000115	80 Feet Rd, KK Nagar, Madurai, Tamil Nadu 625020 , தி சாக்லேட் ரூம்	9.9328558	78.1488645	noisy	IN	Tamil	reordered	node	11927789069	தி சாக்லேட் ரூம்
in-tamil-reordered-0000000116	874, 161F, Kamarajar Salai, Madurai, Tamil Nadu 625009 , ஸ்ரீ காமாட்சி மஹால்	9.913953300000001	78.14173810000001	noisy	IN	Tamil	reordered	node	11929962869	ஸ்ரீ காமாட்சி மஹால்
in-tamil-reordered-0000000117	54, Kamarajar Salai, Krishna Puram, Madurai, Tamil Nadu 625009 54, அனந்த & அனந்த - காமராஜர் சாலை பிராஞ்ச்	9.9176821	78.127397	noisy	IN	Tamil	reordered	node	11983102369	அனந்த & அனந்த - காமராஜர் சாலை பிராஞ்ச்
in-tamil-reordered-0000000118	17A, Melur Main Rd, Opposite to District Court, Near Rajahia Muthiah Mandram, Mellur, Madurai, Tamil 17A, ஹோட்டல் தி மெட்ரோபோல்	9.936497300000001	78.1419525	noisy	IN	Tamil	reordered	node	12026114169	ஹோட்டல் தி மெட்ரோபோல்
in-tamil-reordered-0000000119	171, Palace Road, Mahal Area, Madurai Main, Madurai, TamilNadu - 625001 171, மாவட்ட பதிவாளர் அலுவலகம், மதுரை	9.9152435	78.1248451	noisy	IN	Tamil	reordered	node	12089112770	மாவட்ட பதிவாளர் அலுவலகம், மதுரை
in-tamil-reordered-0000000120	212, East Veli Street, opp. NewRajmahal, Kamarajar Salai, Madurai Main, Madurai, Tamil Nadu 625001 212, ஸ்ரீ சரவணா பேக்கரிஸ்	9.9201876	78.12524900000001	noisy	IN	Tamil	reordered	node	12157827001	ஸ்ரீ சரவணா பேக்கரிஸ்
in-tamil-reordered-0000000121	coimbatore, Sarcarsamakulam 42PR+M2Q, Vinayagar Temple,Balaji Nagar,kovil Palayam விநாயகர் டெம்பிள்,பாலாஜி நகர்,கோவில் பாளையம்	11.1367043	77.04006150000001	clean	IN	Tamil	reordered	node	12168348720	Vinayagar Temple,Balaji Nagar,kovil Palayam விநாயகர் டெம்பிள்,பாலாஜி நகர்,கோவில் பாளையம்
in-tamil-reordered-0000000122	Teppakulam, Kamarajar Salai, Madurai, Tamil Nadu 159/1B, கிருஷ்ணன் மெஸ்	9.9136442	78.1438085	noisy	IN	Tamil	reordered	node	12307991201	கிருஷ்ணன் மெஸ்
in-tamil-reordered-0000000123	Dabaspete - Hosur Highway , யோகி வேமனா உயர்நிலை பள்ளி	12.7949558	77.856243	noisy	IN	Tamil	reordered	node	12347796201	யோகி வேமனா உயர்நிலை பள்ளி
in-tamil-reordered-0000000124	Chennasanthiram, ஸ்ரீ அனந்தீஸ்வரர் கோவில்	12.779673200000001	77.86934600000001	noisy	IN	Tamil	reordered	node	12347817601	ஸ்ரீ அனந்தீஸ்வரர் கோவில்
in-tamil-reordered-0000000125	Bagalur, பாகலூர் பேருந்து நிலையம்	12.830318700000001	77.866158	noisy	IN	Tamil	reordered	node	12350925201	பாகலூர் பேருந்து நிலையம்
in-tamil-reordered-0000000126	Dabaspete - Hosur Highway , துளசி பார்மசி	12.7457796	77.8339248	noisy	IN	Tamil	reordered	node	12398998001	துளசி பார்மசி
in-tamil-reordered-0000000127	East Veli Street, Nelpettai, Madurai Main, Lakshmipuram, Madurai, Tamil Nadu 11/12, கிருஷ்ணன் மட்டன் ஸ்டால் & பிராய்லர்	9.9227108	78.1251747	noisy	IN	Tamil	reordered	node	12465669004	கிருஷ்ணன் மட்டன் ஸ்டால் & பிராய்லர்
in-tamil-reordered-0000000128	Beach Road, opp, Muthu Nagar Beach, Thoothukudi, Tamil Nadu 628001 , விக்டோரியா பள்ளி CBSE	8.8076407	78.1611417	noisy	IN	Tamil	reordered	node	12477693601	விக்டோரியா பள்ளி CBSE
in-tamil-reordered-0000000129	Perumal kovil, North Street, Tallakulam, Tamil Nadu 2, கறி கஞ்சி	9.9345224	78.1361957	noisy	IN	Tamil	reordered	node	12529266902	கறி கஞ்சி
in-tamil-reordered-0000000130	Karadi Patti, Kochi - Madurai - Dhanushkodi Rd, Nagamalaipudukottai, Tamil Nadu 4/337, சிவஜெய மஹால்	9.9357374	78.0385794	noisy	IN	Tamil	reordered	node	12550742901	சிவஜெய மஹால்
in-tamil-reordered-0000000131	Kamarajar Salai, near Nirmala School, Madurai, Tamil Nadu 161J, முத்து தங்கம் கல்யாண மஹால்	9.9129261	78.1413686	noisy	IN	Tamil	reordered	node	12650159001	முத்து தங்கம் கல்யாண மஹால்
in-tamil-reordered-0000000132	Tiruvarur - Mannargudi - Muthupet Road , அரசு மருத்துவமனை - முத்துப்பேட்டை	10.399673	79.4966964	noisy	IN	Tamil	reordered	node	12705210701	அரசு மருத்துவமனை - முத்துப்பேட்டை
in-tamil-reordered-0000000133	Tiruvarur - Mannargudi - Muthupet Road , சந்தை	10.4001277	79.49729500000001	noisy	IN	Tamil	reordered	node	12705215006	சந்தை
in-tamil-reordered-0000000134	Munichalai, Kamarajar Salai, Madurai, Tamil Nadu , பி டி ஆர் டிபன் சென்டர்	9.9171008	78.133082	noisy	IN	Tamil	reordered	node	12760481601	பி டி ஆர் டிபன் சென்டர்
in-tamil-reordered-0000000135	Anna Salai (Mount Road) 67, தமிழ்நாடு செய்தித்தாள் காகித நிருவனம்	13.011056300000002	80.2185774	noisy	IN	Tamil	reordered	node	12773528701	தமிழ்நாடு செய்தித்தாள் காகித நிருவனம்
in-tamil-reordered-0000000136	East Masi Street, Kamarajar Salai, Nelpettai, Madurai Main, Madurai, Tamil Nadu 218, எஸ். எஸ். காப்பி பார்	9.920988900000001	78.12505180000001	noisy	IN	Tamil	reordered	node	12858165302	எஸ். எஸ். காப்பி பார்
in-tamil-reordered-0000000137	Mettukuppam Road, near VADALUR, Mettukuppam, Tamil Nadu 607802 , Siddhivalaakam சித்திவளாகம்	11.5192215	79.5296989	noisy	IN	Tamil	reordered	node	12916325450	Siddhivalaakam சித்திவளாகம்
in-tamil-reordered-0000000138	Mettukuppam Road, near VADALUR, Mettukuppam, Tamil Nadu 607802 , Siddhivalaakam சித்திவளாகம்	11.5192215	79.5296989	noisy	IN	Tamil	reordered	node	12916578064	Siddhivalaakam சித்திவளாகம்
in-tamil-reordered-0000000139	Karunguzhi, Tamil Nadu , Karungulzhi வள்ளலார் திருக்கோயில் - தண்ணீரில் விளக்கேற்றிய இல்லம், கருங்குழி	11.5192438	79.54394190000001	noisy	IN	Tamil	reordered	node	12917319402	Karungulzhi வள்ளலார் திருக்கோயில் - தண்ணீரில் விளக்கேற்றிய இல்லம், கருங்குழி
in-tamil-reordered-0000000140	Virudhachalam - Cuddalore Road, opposite police station, Kullanchavadi, Tamilnadu , அபூர்வ ஸ்வீட்ஸ் & பேக்கரி வி.ராஜசேகர்	11.628417800000001	79.6692857	noisy	IN	Tamil	reordered	node	12923582401	அபூர்வ ஸ்வீட்ஸ் & பேக்கரி வி.ராஜசேகர்
in-tamil-reordered-0000000141	Padaleeswarar Koil Street, Muthaiya Nagar, Thirupapuliyur, Cuddalore, Tamil Nadu 106, திருமலை பவன் உயர்தர அசைவ உணவகம்	11.746574500000001	79.7482525	noisy	IN	Tamil	reordered	node	12923691908	திருமலை பவன் உயர்தர அசைவ உணவகம்
in-tamil-reordered-0000000142	Theni Road, opposite Devaki Scan, Arasaradi, Madurai, Tamil Nadu. No:2, க்லடிஸ்	9.9281345	78.0980346	noisy	IN	Tamil	reordered	node	13006321201	க்லடிஸ்
in-tamil-reordered-0000000143	Pandiya Velalar Street, South Gate, Periyar, Madurai Main, Madurai, Tamil Nadu. 6, புற டிஃபன் சென்டர்	9.9118607	78.11589760000001	noisy	IN	Tamil	reordered	node	13008673605	புற டிஃபன் சென்டர்
in-tamil-reordered-0000000144	Chinna Kadai St, South Gate, Madurai Main, Madurai, Tamil Nadu. 41, ஶ்ரீ ராமலக்ஷ்மண அயன் ஒர்க்ஸ்	9.913259	78.11977420000001	noisy	IN	Tamil	reordered	node	13008756501	ஶ்ரீ ராமலக்ஷ்மண அயன் ஒர்க்ஸ்
in-tamil-reordered-0000000145	East Masi Street, Kamarajar Salai, Madurai Main, Madurai, Tamil Nadu. 167, ஹரிஷ் அடுமனை இனிப்பகம்	9.917908800000001	78.1236476	noisy	IN	Tamil	reordered	node	13013878401	ஹரிஷ் அடுமனை இனிப்பகம்
in-tamil-reordered-0000000146	N Car St, Utrakosamangai, Tamil Nadu , மங்கை மாகாளி கோயில்	9.3182845	78.7403455	noisy	IN	Tamil	reordered	node	13046162302	மங்கை மாகாளி கோயில்
in-tamil-reordered-0000000147	623707, SPM Colony, Attupalam, Paramakudi, Tamil Nadu , ஹட்சன் ஸ்டோர்	9.5496195	78.58826020000001	noisy	IN	Tamil	reordered	node	13046163803	ஹட்சன் ஸ்டோர்
in-tamil-reordered-0000000148	Singalandapuram, Chinna kadai Street 4/75, Karthik Store (a) மாணிக்கம் மளிகை	11.4165583	78.22340650000001	clean	IN	Tamil	reordered	node	13137815676	Karthik Store (a) மாணிக்கம் மளிகை
in-tamil-reordered-0000000149	நம்ம நக்கம்பாடி	11.263334200000001	79.1571653	noisy	IN	Tamil	reordered	node	13245734416	நம்ம நக்கம்பாடி
in-tamil-reordered-0000000150	2nd Main Road 80, தின்னை மெஸ்	13.027376	80.254007	noisy	IN	Tamil	reordered	node	13253593001	தின்னை மெஸ்
