query_id	query_text	gold_lat	gold_lon	quality_class	assigned_country	script_family	query_form	osm_kind	osm_id	name
gb-latin-canonical-0000000001	The Fields Nursery School, Galfrid Road , Cambridge CB5 8ND	52.2080209	0.1620721	noisy	GB	Latin	canonical	node	18629028	The Fields Nursery School
gb-latin-canonical-0000000002	Preston	52.612636200000004	-0.7142833000000001	noisy	GB	Latin	canonical	node	18899044	Preston
fr-latin-canonical-0000000003	Villeneuve-Loubet	43.6579947	7.1217592000000005	noisy	FR	Latin	canonical	node	26692232	Villeneuve-Loubet
fr-latin-canonical-0000000004	Montry,  77450	48.887500700000004	2.8282263000000003	noisy	FR	Latin	canonical	node	26695174	Montry
at-latin-canonical-0000000005	Weißkirchen an der Traun	48.1642098	14.1271488	noisy	AT	Latin	canonical	node	26921784	Weißkirchen an der Traun
de-latin-canonical-0000000006	Score, Auricher Straße 25, Wittmund 26409	53.57446890000001	7.7748581	clean	DE	Latin	canonical	node	28118508	Score
gb-latin-canonical-0000000007	The Bell	53.54406650000001	-2.6882718000000003	noisy	GB	Latin	canonical	node	29393737	The Bell
de-latin-canonical-0000000008	Freden (Leine)	51.9282454	9.8967232	noisy	DE	Latin	canonical	node	30796086	Freden (Leine)
de-latin-canonical-0000000009	Museum Heerenveen, Minckelersstraat 11, Heerenveen 8442CE	52.959960900000006	5.9258696	clean	DE	Latin	canonical	node	34050824	Museum Heerenveen
be-latin-canonical-0000000010	Rebaix	50.660198	3.7836911000000004	noisy	BE	Latin	canonical	node	61739917	Rebaix
it-latin-canonical-0000000011	Cicala	39.02219	16.486101	noisy	IT	Latin	canonical	node	67273586	Cicala
au-latin-canonical-0000000012	Hardys Bay	-33.526971700000004	151.35427990000002	noisy	AU	Latin	canonical	node	116961449	Hardys Bay
fr-latin-canonical-0000000013	Northay	50.8957399	-3.0223058000000003	noisy	FR	Latin	canonical	node	117688989	Northay
de-latin-canonical-0000000014	Wertstoffhof, Industriestraße 22, Lappersdorf 93138	49.0576822	12.0892189	clean	DE	Latin	canonical	node	129548500	Wertstoffhof
us-latin-canonical-0000000015	Gilbertsville	42.4714657	-75.32572900000001	noisy	US	Latin	canonical	node	158569207	Gilbertsville
us-latin-canonical-0000000016	Richland Center	40.431491300000005	-75.2973989	noisy	US	Latin	canonical	node	158609365	Richland Center
us-latin-canonical-0000000017	North Searsmont	44.408962900000006	-69.21643040000001	noisy	US	Latin	canonical	node	158823518	North Searsmont
us-latin-canonical-0000000018	Meadowbrook	43.8306376	-69.8483801	noisy	US	Latin	canonical	node	158903654	Meadowbrook
de-latin-canonical-0000000019	Arlewatt	54.5394426	9.081854400000001	noisy	DE	Latin	canonical	node	180296627	Arlewatt
de-latin-canonical-0000000020	Frankenstein	49.4401766	7.974614900000001	noisy	DE	Latin	canonical	node	240050335	Frankenstein
at-latin-canonical-0000000021	Buch in Tirol	47.3733189	11.7516548	noisy	AT	Latin	canonical	node	240064235	Buch in Tirol
at-latin-canonical-0000000022	Rittersfeld	48.354643700000004	15.736266200000001	noisy	AT	Latin	canonical	node	240119215	Rittersfeld
gb-latin-canonical-0000000023	The Fisherman's Rest, Mill Lane , Fareham PO15 5RA	50.8563667	-1.2298551	noisy	GB	Latin	canonical	node	257725047	The Fisherman's Rest
de-latin-canonical-0000000024	Ergenzingen	48.4932388	8.8092235	noisy	DE	Latin	canonical	node	262796430	Ergenzingen
de-latin-canonical-0000000025	Alaincourt,  70210	47.9406	6.09898	noisy	DE	Latin	canonical	node	291527794	Alaincourt
de-latin-canonical-0000000026	Netto Marken-Discount, Königsbrücker Straße 28, Dresden 01099	51.0675553	13.747821100000001	clean	DE	Latin	canonical	node	298196641	Netto Marken-Discount
es-latin-canonical-0000000027	La Giraba de Abajo	40.102702300000004	-0.3816254	noisy	ES	Latin	canonical	node	301846972	La Giraba de Abajo
de-latin-canonical-0000000028	Der Schreibladen, Schmausenbuckstraße 4, Nürnberg 90482	49.460025800000004	11.1303842	clean	DE	Latin	canonical	node	304816906	Der Schreibladen
gb-latin-canonical-0000000029	Sulgrave	54.914601700000006	-1.5111459	noisy	GB	Latin	canonical	node	316252879	Sulgrave
at-latin-canonical-0000000030	St. Anna-Apotheke, Kürschnergasse 9, Wien 1210	48.2725133	16.4459467	clean	AT	Latin	canonical	node	334501193	St. Anna-Apotheke
de-latin-canonical-0000000031	Syhra	51.0410595	12.644484	noisy	DE	Latin	canonical	node	344846441	Syhra
de-latin-canonical-0000000032	Dorfgemeinschaftshaus Hochstadt, Hauptstraße 198, Hochstadt (Pfalz) 76879	49.2409757	8.2195134	clean	DE	Latin	canonical	node	363313469	Dorfgemeinschaftshaus Hochstadt
br-latin-canonical-0000000033	Ouroeste	-20.0013584	-50.373641400000004	noisy	BR	Latin	canonical	node	368264897	Ouroeste
it-latin-canonical-0000000034	Le 5 Querce, Via di Maestrale 29	43.537567800000005	10.349924900000001	noisy	IT	Latin	canonical	node	369535817	Le 5 Querce
de-latin-canonical-0000000035	Casel - Kózle	51.6869086	14.1301964	noisy	DE	Latin	canonical	node	395285586	Casel - Kózle
at-latin-canonical-0000000036	Thalham	48.628143400000006	11.846120200000001	noisy	AT	Latin	canonical	node	410700002	Thalham
br-latin-canonical-0000000037	Campo Bom	-29.678418	-51.0572268	noisy	BR	Latin	canonical	node	415523849	Campo Bom
br-latin-canonical-0000000038	Cafelândia	-15.173573900000001	-49.235775800000006	noisy	BR	Latin	canonical	node	416655133	Cafelândia
br-latin-canonical-0000000039	Canto Escuro	-9.053556	-47.942527000000005	noisy	BR	Latin	canonical	node	416760930	Canto Escuro
de-latin-canonical-0000000040	Da Mario, Zeppelinstraße 2, Pirmasens 66953	49.203891500000005	7.607018200000001	clean	DE	Latin	canonical	node	447787808	Da Mario
fr-latin-canonical-0000000041	Saint-Juvat	48.352878100000005	-2.0435232	noisy	FR	Latin	canonical	node	470443236	Saint-Juvat
at-latin-canonical-0000000042	Aich	47.576438200000005	9.9980091	noisy	AT	Latin	canonical	node	482323122	Aich
fr-latin-canonical-0000000043	Mouraille	45.7230008	3.4172866	noisy	FR	Latin	canonical	node	504633780	Mouraille
de-latin-canonical-0000000044	Bremacker	48.8289768	7.1129246	noisy	DE	Latin	canonical	node	506192413	Bremacker
in-latin-canonical-0000000045	Fresh@Heritage, Basaveshwara Nagar, Bangalore	12.997454500000002	77.54030230000001	noisy	IN	Latin	canonical	node	519550433	Fresh@Heritage
gb-latin-canonical-0000000046	Newbridge	52.594154	-2.1587528000000002	noisy	GB	Latin	canonical	node	605281458	Newbridge
fr-latin-canonical-0000000047	Strada Valle	45.0122968	9.1656399	noisy	FR	Latin	canonical	node	611710430	Strada Valle
es-latin-canonical-0000000048	Aizkorri, Herrigune barreiatua 11, Idiazabal 20213	43.020049300000004	-2.2308591	clean	ES	Latin	canonical	node	620524312	Aizkorri
nl-latin-canonical-0000000049	Kwai Wan, Maaspoortweg 285-289, 's-Hertogenbosch 5235KW	51.7258799	5.3081378	clean	NL	Latin	canonical	node	647248114	Kwai Wan
fr-latin-canonical-0000000050	Pasturenzo	44.9331705	9.258481600000001	noisy	FR	Latin	canonical	node	662980505	Pasturenzo
fr-latin-canonical-0000000051	Lachamp Est	44.7237993	4.610181900000001	noisy	FR	Latin	canonical	node	665717907	Lachamp Est
at-latin-canonical-0000000052	Dr. Birgit Murer, Hauptstraße 16, St. Lambrecht 8813	47.069	14.298985700000001	clean	AT	Latin	canonical	node	683080294	Dr. Birgit Murer
at-latin-canonical-0000000053	Hasenfeld	47.8125763	9.8997319	noisy	AT	Latin	canonical	node	694947115	Hasenfeld
gb-latin-canonical-0000000054	Costa, Golden Way ,  M41 0NA	53.449315600000006	-2.3543095000000003	noisy	GB	Latin	canonical	node	715888036	Costa
fr-latin-canonical-0000000055	Les Brougnous	43.9808846	3.9553067000000004	noisy	FR	Latin	canonical	node	761831136	Les Brougnous
fr-latin-canonical-0000000056	La Flavardarie	44.028254800000006	3.9949337000000003	noisy	FR	Latin	canonical	node	772150098	La Flavardarie
au-latin-canonical-0000000057	Kalbarri Visitor Centre, Grey Street 70	-27.709181	114.1661526	noisy	AU	Latin	canonical	node	820031362	Kalbarri Visitor Centre
ch-latin-canonical-0000000058	Moogi Kebab Parco Ciani Lugano, Viale Carlo Cattaneo 18, Lugano 6900	46.005751000000004	8.960764000000001	clean	CH	Latin	canonical	node	821377133	Moogi Kebab Parco Ciani Lugano
es-latin-canonical-0000000059	Colònia Molló Blanc	39.3891277	-0.5902185000000001	noisy	ES	Latin	canonical	node	944854574	Colònia Molló Blanc
fr-latin-canonical-0000000060	Poirier le Loup	49.084685500000006	5.3959107	noisy	FR	Latin	canonical	node	956236749	Poirier le Loup
fr-latin-canonical-0000000061	Barrillonnière	45.1966483	5.4756631	noisy	FR	Latin	canonical	node	1190819722	Barrillonnière
de-latin-canonical-0000000062	Pfaffenloh	49.7483857	11.2353401	noisy	DE	Latin	canonical	node	1196573255	Pfaffenloh
de-latin-canonical-0000000063	Dijkstra Tandheelkunde, Siersteenlaan 428-5, Groningen 9743ES	53.225708100000006	6.529675500000001	clean	DE	Latin	canonical	node	1228954308	Dijkstra Tandheelkunde
at-latin-canonical-0000000064	Unterbechingen	48.617299	10.360369	noisy	AT	Latin	canonical	node	1232107879	Unterbechingen
es-latin-canonical-0000000065	Siete Hermanos	38.989229300000005	-5.2733827	noisy	ES	Latin	canonical	node	1241275716	Siete Hermanos
es-latin-canonical-0000000066	Roza de la Picada	38.837471400000005	-6.0286707	noisy	ES	Latin	canonical	node	1241292840	Roza de la Picada
es-latin-canonical-0000000067	Solano del Parralejo	38.075588100000004	-6.867566600000001	noisy	ES	Latin	canonical	node	1241300678	Solano del Parralejo
es-latin-canonical-0000000068	Los Majanos	40.4360611	-5.4904253	noisy	ES	Latin	canonical	node	1241475515	Los Majanos
es-latin-canonical-0000000069	Zorrera	38.089578	-6.6149823	noisy	ES	Latin	canonical	node	1241549858	Zorrera
es-latin-canonical-0000000070	Tres Arroyos	38.4487528	-6.817111000000001	noisy	ES	Latin	canonical	node	1241576760	Tres Arroyos
es-latin-canonical-0000000071	Pla de Can Batlle	42.203746100000004	2.6780631	noisy	ES	Latin	canonical	node	1241592507	Pla de Can Batlle
es-latin-canonical-0000000072	La Portilla	40.351769100000006	-6.297456700000001	noisy	ES	Latin	canonical	node	1241596263	La Portilla
es-latin-canonical-0000000073	La Huerta del Ecijano	38.0853169	-5.8263248	noisy	ES	Latin	canonical	node	1241606469	La Huerta del Ecijano
es-latin-canonical-0000000074	El Puços	42.4444439	0.7240875	noisy	ES	Latin	canonical	node	1241615545	El Puços
es-latin-canonical-0000000075	Montanha de Montcorbau	42.7651313	0.7948199	noisy	ES	Latin	canonical	node	1241619011	Montanha de Montcorbau
es-latin-canonical-0000000076	Cerro del Chincho	37.0410613	-5.6608271000000006	noisy	ES	Latin	canonical	node	1241638783	Cerro del Chincho
es-latin-canonical-0000000077	El Pozo	37.5599337	-5.400041300000001	noisy	ES	Latin	canonical	node	1241640356	El Pozo
es-latin-canonical-0000000078	els Escolls	42.103003400000006	0.8835518000000001	noisy	ES	Latin	canonical	node	1241641558	els Escolls
es-latin-canonical-0000000079	Lagunas	41.7175365	-5.7247645	noisy	ES	Latin	canonical	node	1241745405	Lagunas
es-latin-canonical-0000000080	La Cañada	41.9599917	-5.8197311	noisy	ES	Latin	canonical	node	1241774479	La Cañada
es-latin-canonical-0000000081	A Torre	42.515571	-7.4305586	noisy	ES	Latin	canonical	node	1241810672	A Torre
es-latin-canonical-0000000082	Casas Viejas	38.8410096	-1.2781281	noisy	ES	Latin	canonical	node	1241856766	Casas Viejas
es-latin-canonical-0000000083	Canto Blanco	39.273245700000004	-1.7470388000000001	noisy	ES	Latin	canonical	node	1241861459	Canto Blanco
es-latin-canonical-0000000084	La Casica	38.2615198	-2.4157796	noisy	ES	Latin	canonical	node	1241886285	La Casica
es-latin-canonical-0000000085	Cerro Cabezo	38.3273041	-1.9814770000000002	noisy	ES	Latin	canonical	node	1241898892	Cerro Cabezo
es-latin-canonical-0000000086	Huerta de Corona	37.342277100000004	-4.3620014000000005	noisy	ES	Latin	canonical	node	1241934017	Huerta de Corona
es-latin-canonical-0000000087	A Auga Lavada	42.185972500000005	-7.1636097	noisy	ES	Latin	canonical	node	1241944680	A Auga Lavada
es-latin-canonical-0000000088	Planada do Carbón	42.3366887	-8.0288045	noisy	ES	Latin	canonical	node	1241948908	Planada do Carbón
es-latin-canonical-0000000089	Os Cancelos	42.1285788	-7.086567100000001	noisy	ES	Latin	canonical	node	1241996992	Os Cancelos
es-latin-canonical-0000000090	O Pasteiro	41.9001412	-7.4645647	noisy	ES	Latin	canonical	node	1241998056	O Pasteiro
es-latin-canonical-0000000091	Valdebarrancos	41.5060924	-0.2448507	noisy	ES	Latin	canonical	node	1242035567	Valdebarrancos
es-latin-canonical-0000000092	La Piedra del Corral	37.2045734	-2.7626759	noisy	ES	Latin	canonical	node	1242310365	La Piedra del Corral
es-latin-canonical-0000000093	La Torreta	40.973515500000005	0.23112770000000002	noisy	ES	Latin	canonical	node	1242362786	La Torreta
es-latin-canonical-0000000094	Mascada	42.66707	-3.3245017000000003	noisy	ES	Latin	canonical	node	1242370738	Mascada
es-latin-canonical-0000000095	Calleja	41.6349163	-3.8469407	noisy	ES	Latin	canonical	node	1242464445	Calleja
es-latin-canonical-0000000096	El Tojo	42.5078048	-3.9777673000000004	noisy	ES	Latin	canonical	node	1242490438	El Tojo
es-latin-canonical-0000000097	El Olivar	37.2225241	-3.9322005000000004	noisy	ES	Latin	canonical	node	1242516853	El Olivar
es-latin-canonical-0000000098	Valdetrigos	42.7717237	-5.7704544	noisy	ES	Latin	canonical	node	1242616247	Valdetrigos
es-latin-canonical-0000000099	Camp Pla	39.5920934	2.8980040000000002	noisy	ES	Latin	canonical	node	1242625528	Camp Pla
es-latin-canonical-0000000100	Vega Fría	41.368670900000005	-3.6465182	noisy	ES	Latin	canonical	node	1242655006	Vega Fría
es-latin-canonical-0000000101	Las Cabañas	41.243823000000006	-3.5434515	noisy	ES	Latin	canonical	node	1242668716	Las Cabañas
es-latin-canonical-0000000102	Llanos de Valhondo	41.3936969	-4.0177285000000005	noisy	ES	Latin	canonical	node	1242671085	Llanos de Valhondo
es-latin-canonical-0000000103	El Bravón	43.421508	-6.2072447	noisy	ES	Latin	canonical	node	1242820700	El Bravón
es-latin-canonical-0000000104	La Campela	43.0019422	-6.8410725	noisy	ES	Latin	canonical	node	1242905690	La Campela
es-latin-canonical-0000000105	Valle Caniecha	43.1026248	-5.532723300000001	noisy	ES	Latin	canonical	node	1242948248	Valle Caniecha
es-latin-canonical-0000000106	Artaduigana	43.194969400000005	-2.6487727000000003	noisy	ES	Latin	canonical	node	1242968029	Artaduigana
es-latin-canonical-0000000107	Kaminogana	43.3825305	-2.9454877	noisy	ES	Latin	canonical	node	1242976378	Kaminogana
es-latin-canonical-0000000108	El Chaparreal	42.843429300000004	-1.4773615	noisy	ES	Latin	canonical	node	1243011257	El Chaparreal
es-latin-canonical-0000000109	Prado Molinero	40.3168592	-1.5572383	noisy	ES	Latin	canonical	node	1243013792	Prado Molinero
es-latin-canonical-0000000110	Cascajales	40.9431128	-4.4583427	noisy	ES	Latin	canonical	node	1243030668	Cascajales
es-latin-canonical-0000000111	Cabeza Perdiguera	40.750391300000004	-4.2687445	noisy	ES	Latin	canonical	node	1243055210	Cabeza Perdiguera
es-latin-canonical-0000000112	Cuesta Grande	42.471368000000005	-4.6517591000000005	noisy	ES	Latin	canonical	node	1243065544	Cuesta Grande
es-latin-canonical-0000000113	La Majada	42.7935068	-4.700588600000001	noisy	ES	Latin	canonical	node	1243065778	La Majada
es-latin-canonical-0000000114	Urrizti	43.295092600000004	-1.6424450000000002	noisy	ES	Latin	canonical	node	1243076156	Urrizti
es-latin-canonical-0000000115	Mazuelas	42.848067	-4.1321934	noisy	ES	Latin	canonical	node	1243090810	Mazuelas
es-latin-canonical-0000000116	Armondain	42.8297572	-1.4194241	noisy	ES	Latin	canonical	node	1243148689	Armondain
es-latin-canonical-0000000117	Sotillo	42.1710895	-1.6374138	noisy	ES	Latin	canonical	node	1243155564	Sotillo
es-latin-canonical-0000000118	El Solanazo	40.1134405	-1.9669506	noisy	ES	Latin	canonical	node	1243158377	El Solanazo
es-latin-canonical-0000000119	Rincón del Hornillo	40.550967500000006	-2.2766302	noisy	ES	Latin	canonical	node	1243158529	Rincón del Hornillo
es-latin-canonical-0000000120	Corral de Moto	40.180536700000005	-2.0461441000000002	noisy	ES	Latin	canonical	node	1243160483	Corral de Moto
es-latin-canonical-0000000121	El Haza Grande	40.007009200000006	-2.8810563	noisy	ES	Latin	canonical	node	1243166661	El Haza Grande
es-latin-canonical-0000000122	La Huerta	38.754482800000005	-4.1018442	noisy	ES	Latin	canonical	node	1243215588	La Huerta
es-latin-canonical-0000000123	La Oliva	40.0902666	-4.205863	noisy	ES	Latin	canonical	node	1243240743	La Oliva
es-latin-canonical-0000000124	Cerro de los Calderones	39.451672900000005	-1.8496304000000001	noisy	ES	Latin	canonical	node	1243254619	Cerro de los Calderones
es-latin-canonical-0000000125	Los Perales	37.1780715	-4.663232900000001	noisy	ES	Latin	canonical	node	1243344801	Los Perales
es-latin-canonical-0000000126	El Escalerón	40.8892559	-2.1280658000000003	noisy	ES	Latin	canonical	node	1243403464	El Escalerón
es-latin-canonical-0000000127	Lloma Redona	39.5242288	-0.47911360000000003	noisy	ES	Latin	canonical	node	1243418479	Lloma Redona
es-latin-canonical-0000000128	Hoya del Pajar	40.6410696	-3.8810808000000003	noisy	ES	Latin	canonical	node	1243427400	Hoya del Pajar
es-latin-canonical-0000000129	el Clero	39.4325495	-0.3398699	noisy	ES	Latin	canonical	node	1243453301	el Clero
es-latin-canonical-0000000130	Cabeza de Fuente Lobo	41.4389124	-2.9054073000000002	noisy	ES	Latin	canonical	node	1243730715	Cabeza de Fuente Lobo
es-latin-canonical-0000000131	El Cerrote	41.4414747	-3.2923698000000003	noisy	ES	Latin	canonical	node	1243740202	El Cerrote
es-latin-canonical-0000000132	Las Arreñas	40.6093386	-2.7403337000000003	noisy	ES	Latin	canonical	node	1243755382	Las Arreñas
es-latin-canonical-0000000133	Caro Cuesta	40.5601907	-3.1015159000000003	noisy	ES	Latin	canonical	node	1243761221	Caro Cuesta
fr-latin-canonical-0000000134	Saint-Étienne	46.2591392	3.4961127000000003	noisy	FR	Latin	canonical	node	1258230869	Saint-Étienne
de-latin-canonical-0000000135	Miwen	52.2218564	13.636609400000001	noisy	DE	Latin	canonical	node	1275112138	Miwen
gb-latin-canonical-0000000136	Burrito kitchen, Millbank 30, London SW1P 4QP	51.492746200000006	-0.12583370000000002	clean	GB	Latin	canonical	node	1282224671	Burrito kitchen
fr-latin-canonical-0000000137	Rivières SCP, Route de Pontchâteau , Saint-Gildas-des-Bois 44530	47.5092736	-2.0407207	noisy	FR	Latin	canonical	node	1287951580	Rivières SCP
be-latin-canonical-0000000138	Hörn	50.7807874	6.0567476000000005	noisy	BE	Latin	canonical	node	1305817961	Hörn
de-latin-canonical-0000000139	Die Fernkenwiesen	53.120212300000006	14.352179600000001	noisy	DE	Latin	canonical	node	1306716048	Die Fernkenwiesen
gb-latin-canonical-0000000140	Wolford, King's Road 17, London SW3 4RP	51.4919476	-0.15876790000000002	clean	GB	Latin	canonical	node	1327234054	Wolford
at-latin-canonical-0000000141	Aspach	47.979165900000005	9.8585066	noisy	AT	Latin	canonical	node	1343756539	Aspach
at-latin-canonical-0000000142	Hetzendorf	48.1672862	16.308549600000003	noisy	AT	Latin	canonical	node	1349205939	Hetzendorf
fr-latin-canonical-0000000143	Le Bistrot du Port, Quai Surcouf 37bis, Rezé 44400	47.195030100000004	-1.5800717000000002	clean	FR	Latin	canonical	node	1373475920	Le Bistrot du Port
de-latin-canonical-0000000144	Auf'm Hof, Fünfhausenstraße 14a, Springe 31832	52.212574700000005	9.5538009	clean	DE	Latin	canonical	node	1390251796	Auf'm Hof
de-latin-canonical-0000000145	Rohrrieth	48.6999185	7.5545447	noisy	DE	Latin	canonical	node	1406121773	Rohrrieth
de-latin-canonical-0000000146	Im Bohland	48.7434372	7.624322200000001	noisy	DE	Latin	canonical	node	1427374016	Im Bohland
au-latin-canonical-0000000147	West Star Family Day Car, The Mall Rear of 57	-37.7482417	145.0422768	noisy	AU	Latin	canonical	node	1432376914	West Star Family Day Car
es-latin-canonical-0000000148	Carbajo	39.603114000000005	-7.1944265000000005	noisy	ES	Latin	canonical	node	1432483082	Carbajo
fr-latin-canonical-0000000149	Massucaou	44.596234200000005	0.432545	noisy	FR	Latin	canonical	node	1443122813	Massucaou
es-latin-canonical-0000000150	Vallbona de les Monges	41.5249704	1.0890539000000001	noisy	ES	Latin	canonical	node	1460477982	Vallbona de les Monges
de-latin-canonical-0000000151	Pulsschlag Fitness-Studio, Am Waltenberg 49, Winterberg 59955	51.1926925	8.524181	clean	DE	Latin	canonical	node	1469616244	Pulsschlag Fitness-Studio
gb-latin-canonical-0000000152	Pulcinella, Hope Street 167, Glasgow G2 2UQ	55.862391800000005	-4.2582885	clean	GB	Latin	canonical	node	1474504719	Pulcinella
cn-latin-canonical-0000000153	Joda	22.024632200000003	85.4236946	noisy	CN	Latin	canonical	node	1494052268	Joda
fr-latin-canonical-0000000154	Tetti Armandi	44.379894300000004	7.3507262	noisy	FR	Latin	canonical	node	1533444618	Tetti Armandi
de-latin-canonical-0000000155	Hinterer Dau	52.255316300000004	13.722816700000001	noisy	DE	Latin	canonical	node	1574565690	Hinterer Dau
es-latin-canonical-0000000156	Penamaior	43.1200205	-7.003532900000001	noisy	ES	Latin	canonical	node	1586421179	Penamaior
de-latin-canonical-0000000157	Ensch	49.82719710000001	6.8338239000000005	noisy	DE	Latin	canonical	node	1610664181	Ensch
it-latin-canonical-0000000158	Binzago	45.6367491	10.3523566	noisy	IT	Latin	canonical	node	1610903603	Binzago
de-latin-canonical-0000000159	Paros, Schützenhausweg 14, Stuttgart 70499	48.8134868	9.126590100000001	clean	DE	Latin	canonical	node	1623712688	Paros
it-latin-canonical-0000000160	Rione Fratelli Cervi	45.797724	13.474719	noisy	IT	Latin	canonical	node	1630007048	Rione Fratelli Cervi
de-latin-canonical-0000000161	Am Holzweg	49.0100482	8.620892600000001	noisy	DE	Latin	canonical	node	1630390955	Am Holzweg
fr-latin-canonical-0000000162	Marcellat, Fénis	45.7205195	7.4809501	noisy	FR	Latin	canonical	node	1643971052	Marcellat
de-latin-canonical-0000000163	Klavierunterricht Christine Worm, Kaltenkirchener Straße 32b, Kattendorf 24568	53.842588000000006	10.023252900000001	clean	DE	Latin	canonical	node	1680783696	Klavierunterricht Christine Worm
es-latin-canonical-0000000164	Rego de Pereira	42.987976100000004	-7.2496808	noisy	ES	Latin	canonical	node	1721168176	Rego de Pereira
fr-latin-canonical-0000000165	Cascina Viscontina	45.533213700000005	9.3485707	noisy	FR	Latin	canonical	node	1721892144	Cascina Viscontina
gb-latin-canonical-0000000166	Sainsbury's Local, Brixton Hill 76, London SW2 1QW	51.4553996	-0.11951450000000001	clean	GB	Latin	canonical	node	1731472479	Sainsbury's Local
de-latin-canonical-0000000167	Bestattungen Nau, Ludwigsplatz 3, Alsfeld 36304	50.753007200000006	9.2693838	clean	DE	Latin	canonical	node	1746863543	Bestattungen Nau
fr-latin-canonical-0000000168	Bulcy,  58400	47.2434093	3.0284092	noisy	FR	Latin	canonical	node	1762445739	Bulcy
nl-latin-canonical-0000000169	Fritzza, Twijnstraat 55, Utrecht 3511ZH	52.0825344	5.1233766	clean	NL	Latin	canonical	node	1762961401	Fritzza
gb-latin-canonical-0000000170	Truly Scrumptious, Market Street , East Harling NR16 2AD	52.4401115	0.9317120000000001	noisy	GB	Latin	canonical	node	1769453025	Truly Scrumptious
fr-latin-canonical-0000000171	Giordana	44.5054919	7.1453366	noisy	FR	Latin	canonical	node	1803003651	Giordana
au-latin-canonical-0000000172	Burra Showgrounds, Hall Terrace 4,  5417	-33.667784000000005	138.9252759	noisy	AU	Latin	canonical	node	1811163607	Burra Showgrounds
gb-latin-canonical-0000000173	Betty's Fish Bar, Bettws Centre , Newport NP20 7TN	51.612441100000005	-3.0290824	noisy	GB	Latin	canonical	node	1842014142	Betty's Fish Bar
de-latin-canonical-0000000174	Warderbrück	53.982125700000005	10.3677921	noisy	DE	Latin	canonical	node	1875762011	Warderbrück
fr-latin-canonical-0000000175	Chazotte	45.639549900000006	4.689999800000001	noisy	FR	Latin	canonical	node	1876086275	Chazotte
at-latin-canonical-0000000176	EMIG, Kirchplatz , Arnfels 8454	46.6764555	15.4016584	noisy	AT	Latin	canonical	node	1885041448	EMIG
gb-latin-canonical-0000000177	Il Molino, Lavender Hill 155, London SW11 5QH	51.46488170000001	-0.15859610000000002	clean	GB	Latin	canonical	node	1921962857	Il Molino
de-latin-canonical-0000000178	Au-Dessus de Steige	48.362917	7.2238183000000005	noisy	DE	Latin	canonical	node	1958430427	Au-Dessus de Steige
es-latin-canonical-0000000179	La Erica	38.1035288	-0.7979797000000001	noisy	ES	Latin	canonical	node	1963482506	La Erica
gb-latin-canonical-0000000180	bar bar.co, High Road 63, London E18 2QP	51.59412450000001	0.0221685	clean	GB	Latin	canonical	node	1985559268	bar bar.co
es-latin-canonical-0000000181	Moto rent migjorn, Passeig de la Marina 58, la Savina 07870	38.732340400000005	1.4168748	clean	ES	Latin	canonical	node	1986061452	Moto rent migjorn
fr-latin-canonical-0000000182	La Champ	45.9912926	2.0279594000000003	noisy	FR	Latin	canonical	node	1997375131	La Champ
fr-latin-canonical-0000000183	Ferluc	44.688324	3.147698	noisy	FR	Latin	canonical	node	1998919296	Ferluc
fr-latin-canonical-0000000184	Moulin des Gouttes	45.554905500000004	4.456864400000001	noisy	FR	Latin	canonical	node	2022760640	Moulin des Gouttes
au-latin-canonical-0000000185	Jigalong	-23.360978600000003	120.78463490000001	noisy	AU	Latin	canonical	node	2026286169	Jigalong
gb-latin-canonical-0000000186	The Corner Shop, Kensington Road 51, Stockport SK3 0UF	53.4003031	-2.1839211	clean	GB	Latin	canonical	node	2097988956	The Corner Shop
gb-latin-canonical-0000000187	Taste, Saw Mill Yard 3, Leeds LS11 5WH	53.791254200000004	-1.5523732000000001	clean	GB	Latin	canonical	node	2134629661	Taste
de-latin-canonical-0000000188	KiK, Auf dem Wehrt 19, Jünkerath 54584	50.3491161	6.5656224000000005	clean	DE	Latin	canonical	node	2148084333	KiK
fr-latin-canonical-0000000189	Salebouyge	44.847726900000005	1.0000892000000001	noisy	FR	Latin	canonical	node	2173688229	Salebouyge
de-latin-canonical-0000000190	Alexander Herrnstadt, Leipziger Straße 187,  34123	51.305122100000006	9.528930800000001	noisy	DE	Latin	canonical	node	2193299912	Alexander Herrnstadt
at-latin-canonical-0000000191	Salon Dagmar, Ligist Markt 9, Ligist 8563	46.9947968	15.207092300000001	clean	AT	Latin	canonical	node	2201644153	Salon Dagmar
es-latin-canonical-0000000192	Beaupré	43.4921699	2.0574849	noisy	ES	Latin	canonical	node	2220897514	Beaupré
fr-latin-canonical-0000000193	Les Quintes	46.9980452	1.1114224000000001	noisy	FR	Latin	canonical	node	2275353460	Les Quintes
fr-latin-canonical-0000000194	La Kiouze	49.366027100000004	-1.4220811	noisy	FR	Latin	canonical	node	2285078461	La Kiouze
ch-latin-canonical-0000000195	La Poste / Die Post 2500 Biel / Bienne 7 Madretsch, Route de Brügg / Brüggstrasse 10, Biel/Bienne 2503	47.131615700000005	7.2521953	clean	CH	Latin	canonical	node	2333305295	La Poste / Die Post 2500 Biel / Bienne 7 Madretsch
be-latin-canonical-0000000196	Tenzershof	51.2385839	6.2788805000000005	noisy	BE	Latin	canonical	node	2340461750	Tenzershof
de-latin-canonical-0000000197	Mode Unikat, Stadtplatz 66, Mühldorf am Inn 84453	48.240674600000006	12.5254147	clean	DE	Latin	canonical	node	2346549814	Mode Unikat
us-latin-canonical-0000000198	Apple Bank, Court Street 326,  11231	40.6830243	-73.9957782	noisy	US	Latin	canonical	node	2357883811	Apple Bank
de-latin-canonical-0000000199	La Pointe	48.031284600000006	6.3788209	noisy	DE	Latin	canonical	node	2377651790	La Pointe
fr-latin-canonical-0000000200	Maison du citoyen, Rue Tourgayranne , Orange 84100	44.135555800000006	4.8065229	noisy	FR	Latin	canonical	node	2437214020	Maison du citoyen
at-latin-canonical-0000000201	Dr. Klaus Jakse, Kreuzgasse 35, Graz 8010	47.083910100000004	15.442319300000001	clean	AT	Latin	canonical	node	2459144025	Dr. Klaus Jakse
cn-latin-canonical-0000000202	Jharsuguda	21.8653634	84.02396560000001	noisy	CN	Latin	canonical	node	2480890771	Jharsuguda
de-latin-canonical-0000000203	Loonbedrijf Huismans, Heerenveenseweg 163, Oldeholtwolde 8477AC	52.9060829	5.9972149	clean	DE	Latin	canonical	node	2482863762	Loonbedrijf Huismans
de-latin-canonical-0000000204	Bell&Bill, Klasingstraße 1, Bielefeld 33602	52.019825100000006	8.5278424	clean	DE	Latin	canonical	node	2516628320	Bell&Bill
es-latin-canonical-0000000205	En Pinel	43.533324300000004	2.0063818	noisy	ES	Latin	canonical	node	2530239469	En Pinel
at-latin-canonical-0000000206	Weiherhof	47.736807600000006	9.530725700000001	noisy	AT	Latin	canonical	node	2547431342	Weiherhof
nl-latin-canonical-0000000207	Restaurant Cru, Badhuisstraat 230, 's-Gravenhage 2584HN	52.1033161	4.2793209	clean	NL	Latin	canonical	node	2590927834	Restaurant Cru
nl-latin-canonical-0000000208	8C, Korvezeestraat 560-571, Delft 2628CX	51.996704300000005	4.3722785	clean	NL	Latin	canonical	node	2596137514	8C
gb-latin-canonical-0000000209	Mini VIPs Montessori Nursery & Pre School, Campbell Road 1, Croydon CR0 2SQ	51.386800900000004	-0.1098582	clean	GB	Latin	canonical	node	2625325472	Mini VIPs Montessori Nursery & Pre School
gb-latin-canonical-0000000210	Pizza Hut Delivery, High Street 4, Ilford IG6 2DF	51.5886897	0.08113690000000001	clean	GB	Latin	canonical	node	2629340967	Pizza Hut Delivery
it-latin-canonical-0000000211	Caffetteria del centro, Piazza della Vittoria , Airola 82011	41.0612219	14.5560936	noisy	IT	Latin	canonical	node	2638359662	Caffetteria del centro
fr-latin-canonical-0000000212	Le Vau Bouyet	48.348475900000004	-2.5801868000000003	noisy	FR	Latin	canonical	node	2691889738	Le Vau Bouyet
us-latin-canonical-0000000213	Fast Track Mobility, 48th Avenue 31-31,  11101	40.7412289	-73.93494050000001	noisy	US	Latin	canonical	node	2708250329	Fast Track Mobility
es-latin-canonical-0000000214	AE Jaume I del Coll, Carrer de Lluís Bonifaç 2, Barcelona 08023	41.417185700000005	2.1506923000000002	clean	ES	Latin	canonical	node	2712763498	AE Jaume I del Coll
nl-latin-canonical-0000000215	popcult, Rokin 104-H, Amsterdam 1012KZ	52.3692762	4.8918387	clean	NL	Latin	canonical	node	2724000384	popcult
fr-latin-canonical-0000000216	Le Broussais	47.679061700000005	-2.0567378	noisy	FR	Latin	canonical	node	2726167079	Le Broussais
us-latin-canonical-0000000217	Growing for Good Farmers Market, Wadsworth Avenue 1552, Philadelphia 19150	40.068097200000004	-75.18507000000001	clean	US	Latin	canonical	node	2760171006	Growing for Good Farmers Market
nl-latin-canonical-0000000218	Brandweerkazerne Gorinchem, Arkelsedijk 22, Gorinchem 4206AC	51.836369600000005	4.9794749000000005	clean	NL	Latin	canonical	node	2773925040	Brandweerkazerne Gorinchem
de-latin-canonical-0000000219	dm, Möllner Landstraße 119, Glinde 21509	53.5428362	10.213687100000001	clean	DE	Latin	canonical	node	2784122654	dm
nl-latin-canonical-0000000220	Habib, Nieuwe Laagzijde 21, Schagen 1741GE	52.7878771	4.8014674	clean	NL	Latin	canonical	node	2784907752	Habib
be-latin-canonical-0000000221	Vinkenbos, Hertogstraat 11, Sprundel 4714BZ	51.537181700000005	4.6018327	clean	BE	Latin	canonical	node	2789401509	Vinkenbos
fr-latin-canonical-0000000222	Lecornée Bridot	48.5271022	4.9236769	noisy	FR	Latin	canonical	node	2790823282	Lecornée Bridot
nl-latin-canonical-0000000223	New York Pizza, Hogezoom 183, Renesse 4325BH	51.7317405	3.7722812	clean	NL	Latin	canonical	node	2807324684	New York Pizza
it-latin-canonical-0000000224	Agriturismo Tarantola, Contrada Tarantola 140/b, Alcamo	37.907467600000004	13.018435400000001	noisy	IT	Latin	canonical	node	2823021707	Agriturismo Tarantola
nl-latin-canonical-0000000225	De Heeren van Maarssen, Maarsseveensevaart 7a, Maarssen 3601CC	52.147002	5.0612499	clean	NL	Latin	canonical	node	2870922644	De Heeren van Maarssen
be-latin-canonical-0000000226	Eethuis Saray, Dorpsstraat 4, Aarle-Rixtel 5735ED	51.5096575	5.6380447	clean	BE	Latin	canonical	node	2901025740	Eethuis Saray
nl-latin-canonical-0000000227	Welkoop, Rijksstraatweg 50, Heemskerk 1964LJ	52.506466	4.6550085	clean	NL	Latin	canonical	node	2905208935	Welkoop
fr-latin-canonical-0000000228	Louvre, Place André Malraux , Paris 75001	48.863427900000005	2.3351782	noisy	FR	Latin	canonical	node	2921238689	Louvre
es-latin-canonical-0000000229	Bordeneuve	43.432551800000006	1.9426054000000001	noisy	ES	Latin	canonical	node	2959638906	Bordeneuve
fr-latin-canonical-0000000230	Piana del Ponte	45.6757531	8.0641997	noisy	FR	Latin	canonical	node	2966864266	Piana del Ponte
es-latin-canonical-0000000231	Cap de Lahitte	43.239114400000005	0.3583635	noisy	ES	Latin	canonical	node	2989188073	Cap de Lahitte
nl-latin-canonical-0000000232	Hoksbergen Hair & Beauty, Bevrijdingsstraat 20, Wageningen 6703AA	51.9679384	5.667686300000001	clean	NL	Latin	canonical	node	3014237250	Hoksbergen Hair & Beauty
br-latin-canonical-0000000233	Paladar & Requinte, Rua Visconde de Inhaúma 1444	-21.1832612	-47.814793200000004	noisy	BR	Latin	canonical	node	3016787854	Paladar & Requinte
de-latin-canonical-0000000234	Schloss Ziethen Hotel, Alte Dorfstraße 33, Kremmen 16766	52.7274782	13.017792700000001	clean	DE	Latin	canonical	node	3074865156	Schloss Ziethen Hotel
br-latin-canonical-0000000235	Igreja Assembléia de Deus Reviver - Santa Maria, Rua Coronel Alípio da Cunha	-3.8597778000000003	-38.499861800000005	noisy	BR	Latin	canonical	node	3075328236	Igreja Assembléia de Deus Reviver - Santa Maria
de-latin-canonical-0000000236	Auf die Steig	48.5944068	7.5789914000000005	noisy	DE	Latin	canonical	node	3090732939	Auf die Steig
es-latin-canonical-0000000237	Espanya, Plaça Nova 15, Santa Maria del Camí 07320	39.6491022	2.7769032	clean	ES	Latin	canonical	node	3091584284	Espanya
fr-latin-canonical-0000000238	amo pizza romana, Avenue de la Division Leclerc 24, Antony 92160	48.7521841	2.3040357	clean	FR	Latin	canonical	node	3095416188	amo pizza romana
gb-latin-canonical-0000000239	Emblem's Coppice	51.8494791	0.22096030000000003	noisy	GB	Latin	canonical	node	3137451517	Emblem's Coppice
es-latin-canonical-0000000240	Laviguère	43.6504124	1.7866236000000002	noisy	ES	Latin	canonical	node	3163614037	Laviguère
at-latin-canonical-0000000241	New Holland Wohlmuth,  38, Gnas 8342	46.8947761	15.782095900000002	noisy	AT	Latin	canonical	node	3167091770	New Holland Wohlmuth
de-latin-canonical-0000000242	Complexe sportif du Langensand, Rue du Rhin 1000, Plobsheim 67115	48.473841300000004	7.744058600000001	clean	DE	Latin	canonical	node	3175347278	Complexe sportif du Langensand
fr-latin-canonical-0000000243	La Raye	46.5091424	4.3142135	noisy	FR	Latin	canonical	node	3201535739	La Raye
it-latin-canonical-0000000244	Carrefour, Via Tricesimo 149/17, Udine 33100	46.0931544	13.235041200000001	clean	IT	Latin	canonical	node	3202983434	Carrefour
br-latin-canonical-0000000245	Posto Teporti, Avenida Teporti 100, Itajaí 88311-460	-26.889899000000003	-48.7103587	clean	BR	Latin	canonical	node	3203841276	Posto Teporti
gb-latin-canonical-0000000246	Acton Town Hall Library, High Street , London	51.5065636	-0.2675848	noisy	GB	Latin	canonical	node	3207892870	Acton Town Hall Library
de-latin-canonical-0000000247	Nikos Friseure, Belderberg 19, Bonn 53113	50.7358709	7.1051624	clean	DE	Latin	canonical	node	3213219729	Nikos Friseure
in-latin-canonical-0000000248	BNM Institute of Technology, Bengaluru 560070	12.921883000000001	77.5675933	noisy	IN	Latin	canonical	node	3214475140	BNM Institute of Technology
fr-latin-canonical-0000000249	Valieutic,  1340, Chambéry 73000	45.5954041	5.9000107	noisy	FR	Latin	canonical	node	3297066817	Valieutic
br-latin-canonical-0000000250	Cicles Muchau, Rua João Palomeque 133, Curitiba	-25.4823433	-49.294221500000006	noisy	BR	Latin	canonical	node	3329708563	Cicles Muchau
fr-latin-canonical-0000000251	Bois Calabre	46.6780179	2.3218051	noisy	FR	Latin	canonical	node	3338444178	Bois Calabre
de-latin-canonical-0000000252	Wolf, Grunewaldstraße 23/24, Berlin 10823	52.4896511	13.3500034	clean	DE	Latin	canonical	node	3343103842	Wolf
de-latin-canonical-0000000253	Steinmatt	48.7480482	7.4680071	noisy	DE	Latin	canonical	node	3395923740	Steinmatt
fr-latin-canonical-0000000254	Mairie de Maillat, Route de Peyriat 110, Maillat 01430	46.1301695	5.5391401	clean	FR	Latin	canonical	node	3408046849	Mairie de Maillat
de-latin-canonical-0000000255	Haus Häßler, Bundiswung 9c, Sylt 25980	54.903548400000005	8.3015579	clean	DE	Latin	canonical	node	3429827292	Haus Häßler
br-latin-canonical-0000000256	Serra da Picada	-10.8461712	-37.6963901	noisy	BR	Latin	canonical	node	3450955161	Serra da Picada
in-latin-canonical-0000000257	Cholenahalli	12.8336342	76.31119360000001	noisy	IN	Latin	canonical	node	3465352316	Cholenahalli
br-latin-canonical-0000000258	Funil	-20.0940018	-40.5405717	noisy	BR	Latin	canonical	node	3573535447	Funil
fr-latin-canonical-0000000259	Pian Faetto	44.933061200000004	7.123241	noisy	FR	Latin	canonical	node	3576432716	Pian Faetto
de-latin-canonical-0000000260	Gourmet by Usta, Schützenstraße 11, Schlangen 33189	51.802915500000005	8.8320106	clean	DE	Latin	canonical	node	3610580071	Gourmet by Usta
de-latin-canonical-0000000261	Im Schwaderloch	48.441109600000004	7.9211524	noisy	DE	Latin	canonical	node	3624849693	Im Schwaderloch
de-latin-canonical-0000000262	Service d'Orientation et d'Insertion Professionnelle, Boulevard Albert 1er 23	48.6936623	6.166344400000001	noisy	DE	Latin	canonical	node	3626643311	Service d'Orientation et d'Insertion Professionnelle
fr-latin-canonical-0000000263	Rumello	48.5651139	-3.4912669000000003	noisy	FR	Latin	canonical	node	3632946943	Rumello
fr-latin-canonical-0000000264	Le Rompi	45.990047100000005	-1.0775581	noisy	FR	Latin	canonical	node	3638383855	Le Rompi
gb-latin-canonical-0000000265	Silver Wing, Parkhead Gardens 2, Edinburgh EH11 4SB	55.9242184	-3.2770984000000003	clean	GB	Latin	canonical	node	3656460448	Silver Wing
at-latin-canonical-0000000266	Melkerblick, Fürnbergstraße 12, Melk 3390	48.224574700000005	15.346368900000002	clean	AT	Latin	canonical	node	3657814460	Melkerblick
br-latin-canonical-0000000267	Estância São Leopoldo	-31.713726	-53.715924	noisy	BR	Latin	canonical	node	3659333654	Estância São Leopoldo
de-latin-canonical-0000000268	Nonnenwiesen	49.0950628	9.076019	noisy	DE	Latin	canonical	node	3688165597	Nonnenwiesen
es-latin-canonical-0000000269	Casa Digna, Praza do Gremio de Mareantes 14, Pontevedra 36001	42.429180200000005	-8.652903	clean	ES	Latin	canonical	node	3689093523	Casa Digna
it-latin-canonical-0000000270	Forno a Legna Le Futuse, Via Curtatone , Tricase 73039	39.9344248	18.3234029	noisy	IT	Latin	canonical	node	3715471505	Forno a Legna Le Futuse
in-latin-canonical-0000000271	Karejavanahalli	13.6162726	76.95777310000001	noisy	IN	Latin	canonical	node	3727937614	Karejavanahalli
fr-latin-canonical-0000000272	Le Corps de Garde, Montée Notre-Dame 3	48.6490859	-2.0282552000000003	noisy	FR	Latin	canonical	node	3741618042	Le Corps de Garde
fr-latin-canonical-0000000273	Le Pont Vieux	46.439691100000005	-1.5141167000000002	noisy	FR	Latin	canonical	node	3761767301	Le Pont Vieux
it-latin-canonical-0000000274	Castelluccio	42.2006542	13.1186042	noisy	IT	Latin	canonical	node	3798688250	Castelluccio
it-latin-canonical-0000000275	Beauty, Via Trifoglio 3, Pozzomaggiore 07018	40.3988761	8.659952200000001	clean	IT	Latin	canonical	node	3802331741	Beauty
de-latin-canonical-0000000276	Müller & Fandré, Hans-Böckler-Straße 3, Dietzenbach 63128	50.017572300000005	8.794220600000001	clean	DE	Latin	canonical	node	3823253261	Müller & Fandré
fr-latin-canonical-0000000277	Le Feuillevay	48.076901	-0.9039838	noisy	FR	Latin	canonical	node	3828333143	Le Feuillevay
fr-latin-canonical-0000000278	Les Sablons	45.193774700000006	5.7481739	noisy	FR	Latin	canonical	node	3845606659	Les Sablons
br-latin-canonical-0000000279	"Projeto ""Mulheres Camponesas Preservando as Sementes, Construindo Soberania Alimentar"", Avenida Prefeito Dácio Oliveira , Caetité 46400-000"	-14.064570400000001	-42.4937551	noisy	BR	Latin	canonical	node	3884267252	"Projeto ""Mulheres Camponesas Preservando as Sementes, Construindo Soberania Alimentar"""
at-latin-canonical-0000000280	Armstrong Consulting GmbH, Zieglergasse 1, Wien 1070	48.197334700000006	16.3456358	clean	AT	Latin	canonical	node	3884752867	Armstrong Consulting GmbH
at-latin-canonical-0000000281	Bernhard Hudelist, Faakerseestraße 16, Faak am See 9583	46.5621212	13.9115435	clean	AT	Latin	canonical	node	3904770051	Bernhard Hudelist
de-latin-canonical-0000000282	Hotel Heidetraum, Heinrich-Wahls-Straße 14, Schneverdingen 29640	53.1191205	9.7781511	clean	DE	Latin	canonical	node	3929655212	Hotel Heidetraum
fr-latin-canonical-0000000283	Botegao	47.861116900000006	-4.2781929000000005	noisy	FR	Latin	canonical	node	3962166622	Botegao
es-latin-canonical-0000000284	Peilli	43.6913926	-0.4663527	noisy	ES	Latin	canonical	node	4000959744	Peilli
ch-latin-canonical-0000000285	Färnigen	46.7487112	8.634059800000001	noisy	CH	Latin	canonical	node	4080624858	Färnigen
ch-latin-canonical-0000000286	A Talpígn	46.262933800000006	8.7172772	noisy	CH	Latin	canonical	node	4125823539	A Talpígn
ch-latin-canonical-0000000287	Chäsalp, Tobelhofstrasse 236, Zürich 8044	47.3820685	8.587925700000001	clean	CH	Latin	canonical	node	4142707564	Chäsalp
it-latin-canonical-0000000288	Magherita Conad, Via dei Portoghesi 3, Tortolì 08048	39.9302907	9.704227600000001	clean	IT	Latin	canonical	node	4181490983	Magherita Conad
cn-latin-canonical-0000000289	Courtyard Marriott, Talegaon Chakan Road Plot P-7 MIDC 1	18.7452325	73.7885028	noisy	CN	Latin	canonical	node	4191381206	Courtyard Marriott
it-latin-canonical-0000000290	Vetriolo	38.1214103	14.876594	noisy	IT	Latin	canonical	node	4195061045	Vetriolo
ch-latin-canonical-0000000291	Schweizer Heimatwerk, Bahnhofstrasse 2, Zürich 8001	47.3677186	8.540285800000001	clean	CH	Latin	canonical	node	4237342496	Schweizer Heimatwerk
br-latin-canonical-0000000292	Churrascaria Minuano, Rodovia Ulysses Guimarães	-26.8815381	-52.945123	noisy	BR	Latin	canonical	node	4239828373	Churrascaria Minuano
it-latin-canonical-0000000293	L'Altro 2.2, Passaggio Roberto Bruni 3, Bergamo 24122	45.6932514	9.6662166	clean	IT	Latin	canonical	node	4243022478	L'Altro 2.2
es-latin-canonical-0000000294	stilos pepi, Calle Alcañiz 30,  46019	39.4941205	-0.37833940000000005	noisy	ES	Latin	canonical	node	4265727196	stilos pepi
de-latin-canonical-0000000295	Tastmodell St. Ludwig, Karlsplatz , Ansbach 91522	49.299484500000005	10.5752264	noisy	DE	Latin	canonical	node	4302562793	Tastmodell St. Ludwig
it-latin-canonical-0000000296	La Tavernetta da Elio, Via Fatebenefratelli 30, Milano 20121	45.4725995	9.1934843	clean	IT	Latin	canonical	node	4305608744	La Tavernetta da Elio
de-latin-canonical-0000000297	Augenoptik Großbeeren, Berliner Straße 36b-e, Großbeeren 14979	52.360239	13.3100927	clean	DE	Latin	canonical	node	4318304592	Augenoptik Großbeeren
es-latin-canonical-0000000298	Papyrum, Baixada de la Llibreteria 2, Barcelona 08002	41.3834883	2.1778244	clean	ES	Latin	canonical	node	4351256671	Papyrum
de-latin-canonical-0000000299	Auf der Hecke	49.726967	8.2861872	noisy	DE	Latin	canonical	node	4355220180	Auf der Hecke
fr-latin-canonical-0000000300	L'Atelier, Place du Foirail 12	44.871677600000005	1.8049682	noisy	FR	Latin	canonical	node	4383219429	L'Atelier
ch-latin-canonical-0000000301	Jimmy’s Bar, Tösstalstrasse 254, Winterthur 8405	47.483154000000006	8.7609805	clean	CH	Latin	canonical	node	4395329797	Jimmy’s Bar
it-latin-canonical-0000000302	DEA c/o Centro Civico di S.Pancrazio, Via Gino Randi 11/1, San Pancrazio 48026	44.359359500000004	12.0792693	clean	IT	Latin	canonical	node	4411137186	DEA c/o Centro Civico di S.Pancrazio
fr-latin-canonical-0000000303	Fieulebise	44.9462215	4.552505	noisy	FR	Latin	canonical	node	4426730027	Fieulebise
br-latin-canonical-0000000304	Apeua	-2.0237908	-57.0810808	noisy	BR	Latin	canonical	node	4433231696	Apeua
fr-latin-canonical-0000000305	Bordes	44.3837404	0.0892897	noisy	FR	Latin	canonical	node	4438898983	Bordes
fr-latin-canonical-0000000306	Bois de Labadie	44.411982900000005	0.19794	noisy	FR	Latin	canonical	node	4467295672	Bois de Labadie
it-latin-canonical-0000000307	Immobiliare Tardini, Viale Maria Boorman Ceccarini 225	43.9961733	12.6511607	noisy	IT	Latin	canonical	node	4495267301	Immobiliare Tardini
jp-latin-canonical-0000000308	Eneos,  8, 仙台市 982-0003	38.214976300000004	140.89267230000002	noisy	JP	Latin	canonical	node	4516946095	Eneos
fr-latin-canonical-0000000309	Les Riailles	44.7782343	4.6358886	noisy	FR	Latin	canonical	node	4517529963	Les Riailles
gb-latin-canonical-0000000310	Bubboo Oriental Grocery, St. George's Road 6-10, London SW19 4DP	51.42124930000001	-0.2081849	clean	GB	Latin	canonical	node	4539987998	Bubboo Oriental Grocery
au-latin-canonical-0000000311	Springdale	-34.467800100000005	147.7225785	noisy	AU	Latin	canonical	node	4555129484	Springdale
fr-latin-canonical-0000000312	Grange Carrée	46.128404700000004	5.1101866000000005	noisy	FR	Latin	canonical	node	4560305102	Grange Carrée
fr-latin-canonical-0000000313	Barrière	46.1622679	5.1548696000000005	noisy	FR	Latin	canonical	node	4560305122	Barrière
fr-latin-canonical-0000000314	Le Verger de l'Aumône	48.436588	-0.5414583000000001	noisy	FR	Latin	canonical	node	4562142589	Le Verger de l'Aumône
br-latin-canonical-0000000315	G.F 365 Fashion, Rua Oriente 365, São Paulo 03016-001	-23.5378137	-46.6186359	clean	BR	Latin	canonical	node	4587651620	G.F 365 Fashion
br-latin-canonical-0000000316	Loja Coisas e Coisas, Avenida São Paulo 30, Teixeira de Freitas	-17.540231600000002	-39.742258400000004	noisy	BR	Latin	canonical	node	4588008381	Loja Coisas e Coisas
de-latin-canonical-0000000317	Große Dicke Busch	50.973409600000004	7.287209900000001	noisy	DE	Latin	canonical	node	4595557065	Große Dicke Busch
br-latin-canonical-0000000318	Cumaru	-1.3689617	-47.374120000000005	noisy	BR	Latin	canonical	node	4599208797	Cumaru
es-latin-canonical-0000000319	Cafeteria Remolins A.J., Carrer del Cardenal Remolins 19, Lleida 25007	41.6198977	0.6313739	clean	ES	Latin	canonical	node	4600748694	Cafeteria Remolins A.J.
fr-latin-canonical-0000000320	Caudière	43.429671000000006	5.9438287	noisy	FR	Latin	canonical	node	4603471652	Caudière
fr-latin-canonical-0000000321	Champ de la Fontaine	47.4813715	-1.0215	noisy	FR	Latin	canonical	node	4625299141	Champ de la Fontaine
fr-latin-canonical-0000000322	Le Colombier	44.7719984	1.0286477	noisy	FR	Latin	canonical	node	4638667466	Le Colombier
nl-latin-canonical-0000000323	Peppa Pig World of Play, Jasmijn 13, Leidschendam 2262AN	52.0887734	4.3846641	clean	NL	Latin	canonical	node	4642341173	Peppa Pig World of Play
de-latin-canonical-0000000324	Hunkemöller, Spremberger Straße 40, Cottbus 03046	51.759995700000005	14.333370700000001	clean	DE	Latin	canonical	node	4644517989	Hunkemöller
fr-latin-canonical-0000000325	Michelot Ouest	44.759967	-0.029343400000000002	noisy	FR	Latin	canonical	node	4651728086	Michelot Ouest
fr-latin-canonical-0000000326	Le Couzis	44.8198645	0.0327194	noisy	FR	Latin	canonical	node	4653863189	Le Couzis
fr-latin-canonical-0000000327	Marsan	43.8401264	-0.0036810000000000002	noisy	FR	Latin	canonical	node	4680836834	Marsan
es-latin-canonical-0000000328	Au Sies	43.5692017	1.0143987	noisy	ES	Latin	canonical	node	4684273360	Au Sies
at-latin-canonical-0000000329	Keim & Brecht, Industriestraße 29, Mittelbiberach 88441	48.092294300000006	9.7607993	clean	AT	Latin	canonical	node	4704904188	Keim & Brecht
it-latin-canonical-0000000330	Africa - Latin America, Viale Francesco Crispi 42, Modena 41121	44.6536702	10.931612300000001	clean	IT	Latin	canonical	node	4712522330	Africa - Latin America
be-latin-canonical-0000000331	Paradis	50.415378600000004	5.690460600000001	noisy	BE	Latin	canonical	node	4726310743	Paradis
de-latin-canonical-0000000332	Impact Hub, Bayrische Straße 8, Dresden 01069	51.0400476	13.729394300000001	clean	DE	Latin	canonical	node	4745221670	Impact Hub
br-latin-canonical-0000000333	Jussara	-20.1833436	-44.9038935	noisy	BR	Latin	canonical	node	4749207512	Jussara
it-latin-canonical-0000000334	Saccone Giuseppe, Via Arianuova 68, Ferrara	44.8455504	11.616648300000001	noisy	IT	Latin	canonical	node	4761840354	Saccone Giuseppe
it-latin-canonical-0000000335	Macelleria Moretti, Via Palestro 71a, Ferrara	44.840271400000006	11.6245691	noisy	IT	Latin	canonical	node	4761879529	Macelleria Moretti
fr-latin-canonical-0000000336	Kergario	47.945492900000005	-2.6991246	noisy	FR	Latin	canonical	node	4777826112	Kergario
ir-latin-canonical-0000000337	Rayes Laundry and Dry Cleaning, Al Matar Street	25.2575505	51.561199900000005	noisy	IR	Latin	canonical	node	4806463080	Rayes Laundry and Dry Cleaning
fr-latin-canonical-0000000338	La Ruesse Claire	46.8987854	2.9088746000000003	noisy	FR	Latin	canonical	node	4806521817	La Ruesse Claire
bh-latin-canonical-0000000339	The Perfumes House, Al-Tijar Avenue	26.2507054	50.609838	noisy	BH	Latin	canonical	node	4813768415	The Perfumes House
au-latin-canonical-0000000340	Himalayan Kitchen, Melbourne Street 73	-34.9063949	138.6088263	noisy	AU	Latin	canonical	node	4821725630	Himalayan Kitchen
gb-latin-canonical-0000000341	The Japanese Print Shop, High Petergate , York YO1 7HW	53.961583700000006	-1.0826294	noisy	GB	Latin	canonical	node	4838149370	The Japanese Print Shop
de-latin-canonical-0000000342	Jongeneel, Krimweg 24, Coevorden 7741KJ	52.6613411	6.7314311	clean	DE	Latin	canonical	node	4845784316	Jongeneel
de-latin-canonical-0000000343	"Betreutes Wohnen ""am Postgut"" Volkssolidarität Betreuteswohnen, Schillerstraße 21, Wettin-Löbejün 06193"	51.635299	11.901401	clean	DE	Latin	canonical	node	4849173422	"Betreutes Wohnen ""am Postgut"" Volkssolidarität Betreuteswohnen"
fr-latin-canonical-0000000344	Chambre d'hôtes Le Grand Noyer, Ambronay 01500	46.006881	5.385232	noisy	FR	Latin	canonical	node	4851286129	Chambre d'hôtes Le Grand Noyer
ch-latin-canonical-0000000345	Wyss Optik, Saatlenstrasse 12, Zürich 8051	47.404947500000006	8.571530000000001	clean	CH	Latin	canonical	node	4893875851	Wyss Optik
fr-latin-canonical-0000000346	La Combe Basse	45.1530745	0.8547968	noisy	FR	Latin	canonical	node	4917582874	La Combe Basse
ae-latin-canonical-0000000347	Al Hana Drinking Water, Al Zaher Street	25.403416800000002	55.436441200000004	noisy	AE	Latin	canonical	node	4940645582	Al Hana Drinking Water
fr-latin-canonical-0000000348	La Talboterie	47.9793834	0.8382493000000001	noisy	FR	Latin	canonical	node	4943298203	La Talboterie
fr-latin-canonical-0000000349	La Tranchée	48.864923000000005	5.6138688000000005	noisy	FR	Latin	canonical	node	4946830418	La Tranchée
om-latin-canonical-0000000350	Barber Shop, Way 4726	23.5954073	58.2385687	noisy	OM	Latin	canonical	node	4968591025	Barber Shop
om-latin-canonical-0000000351	Al Sahil Karak, Darsait Street	23.6183997	58.5413117	noisy	OM	Latin	canonical	node	4969111844	Al Sahil Karak
fr-latin-canonical-0000000352	La Guesdonnière	48.4867244	-1.2990361000000001	noisy	FR	Latin	canonical	node	4970497592	La Guesdonnière
fr-latin-canonical-0000000353	Le Fay	48.493889100000004	-1.2897577	noisy	FR	Latin	canonical	node	4970497903	Le Fay
us-latin-canonical-0000000354	Derby Village Market, Derby Line Road 2956	44.9541406	-72.1308892	noisy	US	Latin	canonical	node	4973494531	Derby Village Market
be-latin-canonical-0000000355	Vieux Depot, Oude Baan 11	51.2893386	4.4913328	noisy	BE	Latin	canonical	node	5018183977	Vieux Depot
gb-latin-canonical-0000000356	Core 3, Palmer Street , York YO1 7PD	53.958684100000006	-1.0737736	noisy	GB	Latin	canonical	node	5022112274	Core 3
ch-latin-canonical-0000000357	Lui du Veya	46.007416600000006	7.333023600000001	noisy	CH	Latin	canonical	node	5022315088	Lui du Veya
de-latin-canonical-0000000358	Les Quatre Cheveux	48.4854634	6.3050687000000005	noisy	DE	Latin	canonical	node	5067430470	Les Quatre Cheveux
br-latin-canonical-0000000359	Fazenda do Caboclo	-12.164848600000001	-42.2013617	noisy	BR	Latin	canonical	node	5092862366	Fazenda do Caboclo
fr-latin-canonical-0000000360	Chez Servanton	45.271882000000005	-0.29235300000000003	noisy	FR	Latin	canonical	node	5104043302	Chez Servanton
de-latin-canonical-0000000361	China-Thai-Imbiss, Frankfurter Straße 12A, Dreieich 63303	50.0197456	8.6953783	clean	DE	Latin	canonical	node	5134710108	China-Thai-Imbiss
gb-latin-canonical-0000000362	Geàrraidh Bhailteas	57.2101854	-7.401351900000001	noisy	GB	Latin	canonical	node	5152595475	Geàrraidh Bhailteas
de-latin-canonical-0000000363	À l'Entrechamps	48.8505971	6.2487852	noisy	DE	Latin	canonical	node	5164007218	À l'Entrechamps
it-latin-canonical-0000000364	Mersede, Via Principe Amedeo 62, Roma 00185	41.899255600000004	12.499931700000001	clean	IT	Latin	canonical	node	5169965890	Mersede
br-latin-canonical-0000000365	Parada CPTM I, Rua Mauá 496, São Paulo 01028-000	-23.5355543	-46.6351147	clean	BR	Latin	canonical	node	5173202075	Parada CPTM I
at-latin-canonical-0000000366	Pian da Grea	46.460269700000005	12.400678800000001	noisy	AT	Latin	canonical	node	5192046687	Pian da Grea
fr-latin-canonical-0000000367	La Garenne	48.1287291	0.5619874	noisy	FR	Latin	canonical	node	5204537148	La Garenne
de-latin-canonical-0000000368	Wilhelm Droll Landhandel & Lebensmittel, Hauptstraße 41, Lauf 77886	48.650207300000005	8.1312414	clean	DE	Latin	canonical	node	5215040596	Wilhelm Droll Landhandel & Lebensmittel
de-latin-canonical-0000000369	Chinas Welt, Dohnanyistraße 11,  04103	51.3460021	12.389831500000001	noisy	DE	Latin	canonical	node	5233506421	Chinas Welt
at-latin-canonical-0000000370	Gstößern	48.6210779	15.270077100000002	noisy	AT	Latin	canonical	node	5235202986	Gstößern
fr-latin-canonical-0000000371	Marchadou	44.7714781	-0.1645393	noisy	FR	Latin	canonical	node	5243004932	Marchadou
fr-latin-canonical-0000000372	Gurnard Ledge	50.7500335	-1.3465226000000001	noisy	FR	Latin	canonical	node	5255717841	Gurnard Ledge
fr-latin-canonical-0000000373	Champ de Courses d'Enghien, Place André Foulon , Soisy-sous-Montmorency 95230	48.979607900000005	2.2919204	noisy	FR	Latin	canonical	node	5258656566	Champ de Courses d'Enghien
fr-latin-canonical-0000000374	Les Eyroles	44.003391900000004	3.7488927000000003	noisy	FR	Latin	canonical	node	5271876345	Les Eyroles
br-latin-canonical-0000000375	Residencial Sul Ipês	-16.7722473	-43.8673353	noisy	BR	Latin	canonical	node	5295839780	Residencial Sul Ipês
fr-latin-canonical-0000000376	La Pièce Blanche	49.226874800000004	-1.0435939	noisy	FR	Latin	canonical	node	5295877436	La Pièce Blanche
gb-latin-canonical-0000000377	Milton Cottage	56.9158814	-2.8593689	noisy	GB	Latin	canonical	node	5341268014	Milton Cottage
in-latin-canonical-0000000378	3ST, Khuba Plot, Brhmpur 8, Gulbarga 585102	17.3277739	76.8290341	clean	IN	Latin	canonical	node	5344864956	3ST
de-latin-canonical-0000000379	Geschenkemarkt, Bungert 9, Gamlen 56761	50.238420000000005	7.2041528	clean	DE	Latin	canonical	node	5350043236	Geschenkemarkt
cn-latin-canonical-0000000380	Sohsarat	25.2063002	91.6420483	noisy	CN	Latin	canonical	node	5352803496	Sohsarat
it-latin-canonical-0000000381	Circolo Degli Uniti, Via di Città 1, Siena 53100	43.3190177	11.3312205	clean	IT	Latin	canonical	node	5387784780	Circolo Degli Uniti
cn-latin-canonical-0000000382	Mothukulapally	18.2936407	79.0866709	noisy	CN	Latin	canonical	node	5390217832	Mothukulapally
in-latin-canonical-0000000383	Nallasingayyagaripalle	14.1653979	77.9999727	noisy	IN	Latin	canonical	node	5418671681	Nallasingayyagaripalle
in-latin-canonical-0000000384	Mapurampalle	14.0049907	78.8484969	noisy	IN	Latin	canonical	node	5426230717	Mapurampalle
in-latin-canonical-0000000385	Bapaladoddi	15.7991106	77.2520159	noisy	IN	Latin	canonical	node	5533084292	Bapaladoddi
it-latin-canonical-0000000386	Masseria Colucci	40.782311400000005	16.9107261	noisy	IT	Latin	canonical	node	5580124607	Masseria Colucci
au-latin-canonical-0000000387	Antica Pizzeria, King William Road 144B,  5061	-34.953928600000005	138.59988610000002	noisy	AU	Latin	canonical	node	5621147922	Antica Pizzeria
in-latin-canonical-0000000388	Budhareddigaripalle	13.9358006	78.755297	noisy	IN	Latin	canonical	node	5631027298	Budhareddigaripalle
fr-latin-canonical-0000000389	Claret	45.508153300000004	3.5020047	noisy	FR	Latin	canonical	node	5685034043	Claret
de-latin-canonical-0000000390	Mundt GmbH Hannover - VB Barsinghausen, Osterstraße 7, Barsinghausen 30890	52.301799900000006	9.466762000000001	clean	DE	Latin	canonical	node	5699313088	Mundt GmbH Hannover - VB Barsinghausen
in-latin-canonical-0000000391	Suravaram	17.809720900000002	82.2716303	noisy	IN	Latin	canonical	node	5732121916	Suravaram
cn-latin-canonical-0000000392	Patrudu	18.268765300000002	82.4413408	noisy	CN	Latin	canonical	node	5753366537	Patrudu
es-latin-canonical-0000000393	Prados de Lañedo	43.1754748	-4.6928323	noisy	ES	Latin	canonical	node	5755462112	Prados de Lañedo
es-latin-canonical-0000000394	Barrio La Arnía	43.470771	-3.915861	noisy	ES	Latin	canonical	node	5760112121	Barrio La Arnía
fr-latin-canonical-0000000395	La Vergnère	45.200263400000004	1.8511487000000002	noisy	FR	Latin	canonical	node	5779395529	La Vergnère
gb-latin-canonical-0000000396	Purley Dragon, Brighton Road 84, Purley CR8 4DA	51.3333701	-0.12289080000000001	clean	GB	Latin	canonical	node	5806412060	Purley Dragon
fr-latin-canonical-0000000397	Quai 23,  23, Saint-Valery-en-Caux 76460	49.869623700000005	0.7152010000000001	noisy	FR	Latin	canonical	node	5818653018	Quai 23
fr-latin-canonical-0000000398	Ferrières en Gâtinais, Rue du Lion d'Or , Ferrières-en-Gâtinais 45210	48.091503200000005	2.7875391	noisy	FR	Latin	canonical	node	5827883243	Ferrières en Gâtinais
at-latin-canonical-0000000399	Schachten	48.363648700000006	12.9256162	noisy	AT	Latin	canonical	node	5876683271	Schachten
fr-latin-canonical-0000000400	Morvaux	48.8913883	5.530311200000001	noisy	FR	Latin	canonical	node	5903424331	Morvaux
br-latin-canonical-0000000401	Jardim Flórida	-23.684338500000003	-46.4436431	noisy	BR	Latin	canonical	node	5919567602	Jardim Flórida
ch-latin-canonical-0000000402	La Datcha, Rue des Côtes-de-Montbenon 13, Lausanne 1003	46.521252100000005	6.625953900000001	clean	CH	Latin	canonical	node	5929275785	La Datcha
fr-latin-canonical-0000000403	Le Champ du Bois	48.0695678	-1.6028138	noisy	FR	Latin	canonical	node	5965606316	Le Champ du Bois
de-latin-canonical-0000000404	Beauty Oase, Fischerinsel 1, Berlin 10179	52.514301200000006	13.4074719	clean	DE	Latin	canonical	node	5992981708	Beauty Oase
au-latin-canonical-0000000405	Yarrol	-25.019167000000003	151.426117	noisy	AU	Latin	canonical	node	6036336721	Yarrol
cn-latin-canonical-0000000406	Chabal Mannan	31.515684900000004	74.81155150000001	noisy	CN	Latin	canonical	node	6054957366	Chabal Mannan
es-latin-canonical-0000000407	Fat Tire, Carrer de Sant Honorat 7,  08002	41.3830843	2.1758763	noisy	ES	Latin	canonical	node	6055403371	Fat Tire
fr-latin-canonical-0000000408	Bois de Mont Felix	47.737122400000004	2.9204875	noisy	FR	Latin	canonical	node	6100558032	Bois de Mont Felix
nl-latin-canonical-0000000409	Reyeroord	51.881294700000005	4.554389700000001	noisy	NL	Latin	canonical	node	6139767754	Reyeroord
fr-latin-canonical-0000000410	Les Armandières	45.4277985	4.8975742	noisy	FR	Latin	canonical	node	6170990734	Les Armandières
cn-latin-canonical-0000000411	Rithora	26.519658500000002	77.86746740000001	noisy	CN	Latin	canonical	node	6228188475	Rithora
fr-latin-canonical-0000000412	Le Cocon, Avenue François Boissel 37	44.4798174	4.241821	noisy	FR	Latin	canonical	node	6264318944	Le Cocon
de-latin-canonical-0000000413	Zuckersüße Elementarteilchen, Windthorststraße 39	51.958506400000005	7.6295253	noisy	DE	Latin	canonical	node	6326432195	Zuckersüße Elementarteilchen
de-latin-canonical-0000000414	Wühlmaus, Bad Bernecker Straße 9, Bindlach 95463	49.982012700000006	11.610603900000001	clean	DE	Latin	canonical	node	6380977301	Wühlmaus
us-latin-canonical-0000000415	Brooklyn Preschool of Science, Wyckoff Street 4,  11201	40.6869096	-73.9933117	noisy	US	Latin	canonical	node	6448401426	Brooklyn Preschool of Science
es-latin-canonical-0000000416	els Alzinots	41.251145300000005	1.6476727000000002	noisy	ES	Latin	canonical	node	6515315895	els Alzinots
in-latin-canonical-0000000417	Cafe Instaa, rl kelkar rd New CHS ltd, 12A/1, Mumbai 400022	19.041939300000003	72.86118850000001	clean	IN	Latin	canonical	node	6534519657	Cafe Instaa
br-latin-canonical-0000000418	Farma Lucas, Rua João Cabral , Teresina 64018-030	-5.0847524	-42.822062	noisy	BR	Latin	canonical	node	6555728624	Farma Lucas
cn-latin-canonical-0000000419	Devali Bagar	30.301369800000003	79.29739280000001	noisy	CN	Latin	canonical	node	6588855793	Devali Bagar
be-latin-canonical-0000000420	Run Attitude, Chaussée de Namur 128, Gembloux 5030	50.5532721	4.707401900000001	clean	BE	Latin	canonical	node	6606555706	Run Attitude
fr-latin-canonical-0000000421	La Plaine	47.487104800000004	2.0641383	noisy	FR	Latin	canonical	node	6644398078	La Plaine
de-latin-canonical-0000000422	Bibliothek Orient Asienwissenschaft (IOA) - Institut für Orient- und Asienwissenschaften, Brühler Straße 7, Bonn 53119	50.740687	7.0727247	clean	DE	Latin	canonical	node	6725988833	Bibliothek Orient Asienwissenschaft (IOA) - Institut für Orient- und Asienwissenschaften
us-latin-canonical-0000000423	New Breed Tattoos, Strayer Street 190, Johnstown 19506	40.3474998	-78.94966600000001	clean	US	Latin	canonical	node	6767992021	New Breed Tattoos
it-latin-canonical-0000000424	Bau su Carru 14/16	39.3601474	9.3401526	noisy	IT	Latin	canonical	node	6823316056	Bau su Carru 14/16
cn-latin-canonical-0000000425	Odisha Red Cross Blood Bank, Capital Hospital, Bhubaneswar 751001	20.260352700000002	85.8226794	noisy	CN	Latin	canonical	node	6881033953	Odisha Red Cross Blood Bank, Capital Hospital
at-latin-canonical-0000000426	Phönix, Eisenstraße 20, Ternberg 4452	47.9494665	14.3598013	clean	AT	Latin	canonical	node	6961281655	Phönix
in-latin-canonical-0000000427	mosque, Punnakal , CALICUT 673603	11.375668200000002	76.04580490000001	noisy	IN	Latin	canonical	node	6977435444	mosque
br-latin-canonical-0000000428	Propriedade Maria Dare Pereira	-20.460800000000003	-41.27796	noisy	BR	Latin	canonical	node	7010962038	Propriedade Maria Dare Pereira
br-latin-canonical-0000000429	Sítio do Lion	-20.352410000000003	-40.6131133	noisy	BR	Latin	canonical	node	7010963989	Sítio do Lion
cn-latin-canonical-0000000430	Dr. Archana Mithal, Western Kutchery Road 397/1,  250001	28.985504100000004	77.70763260000001	noisy	CN	Latin	canonical	node	7035360175	Dr. Archana Mithal
be-latin-canonical-0000000431	Geox, Mail de Lannoy 44	50.689966500000004	3.1811187000000003	noisy	BE	Latin	canonical	node	7087876105	Geox
fr-latin-canonical-0000000432	Kerbiniou	48.631225	-3.9860935000000004	noisy	FR	Latin	canonical	node	7105154163	Kerbiniou
fr-latin-canonical-0000000433	Bolan	47.9693704	-2.749308	noisy	FR	Latin	canonical	node	7107259488	Bolan
cn-latin-canonical-0000000434	Government Hospital Gunnor, Gunnour ,  488058	24.4658653	80.24823500000001	noisy	CN	Latin	canonical	node	7113271488	Government Hospital Gunnor
fr-latin-canonical-0000000435	Fourtse	45.6767054	7.1217139000000005	noisy	FR	Latin	canonical	node	7143506183	Fourtse
fr-latin-canonical-0000000436	Kermaria	47.980719400000005	-4.134804900000001	noisy	FR	Latin	canonical	node	7168894705	Kermaria
in-latin-canonical-0000000437	Ssri Valliappa Vidhayalayam mat hr school, sankari main road 4/456	11.4004878	77.77943810000001	noisy	IN	Latin	canonical	node	7178572263	Ssri Valliappa Vidhayalayam mat hr school
fr-latin-canonical-0000000438	Dine	44.107755700000006	0.34786100000000003	noisy	FR	Latin	canonical	node	7220970409	Dine
at-latin-canonical-0000000439	Fürst Engineering GmbH, Am Dorfanger 1, Marxheim 86688	48.753860700000004	10.9765999	clean	AT	Latin	canonical	node	7239358570	Fürst Engineering GmbH
fr-latin-canonical-0000000440	Le Haut Bacon	49.1626099	-0.8576978000000001	noisy	FR	Latin	canonical	node	7261913746	Le Haut Bacon
br-latin-canonical-0000000441	Deusa Cabelereira, Alameda Eduardo Prado 141, São Paulo 01218-011	-23.5291797	-46.646904400000004	clean	BR	Latin	canonical	node	7264570046	Deusa Cabelereira
at-latin-canonical-0000000442	Pool-Stars Altach, Wichnerstraße 2, Altach 6844	47.355251200000005	9.6591377	clean	AT	Latin	canonical	node	7275487952	Pool-Stars Altach
fr-latin-canonical-0000000443	Les Loges	48.6377481	2.424696	noisy	FR	Latin	canonical	node	7277605124	Les Loges
cn-latin-canonical-0000000444	Amarpura	26.7162313	74.6951008	noisy	CN	Latin	canonical	node	7358934896	Amarpura
cn-latin-canonical-0000000445	Gotoli	28.0358495	76.8888044	noisy	CN	Latin	canonical	node	7384408722	Gotoli
fr-latin-canonical-0000000446	Bar Centrale, Via Umberto Primo 3, Palestro 27030	45.301718	8.5320325	clean	FR	Latin	canonical	node	7416355689	Bar Centrale
cn-latin-canonical-0000000447	Umarzari	21.192042100000002	79.9356478	noisy	CN	Latin	canonical	node	7419189134	Umarzari
fr-latin-canonical-0000000448	Les Sablons	48.058750100000005	0.41171640000000004	noisy	FR	Latin	canonical	node	7425697918	Les Sablons
de-latin-canonical-0000000449	Glinwisch	53.595714300000004	9.7958741	noisy	DE	Latin	canonical	node	7457200624	Glinwisch
es-latin-canonical-0000000450	Groupe BMAZ, Route de Mahourat 1281, Heugas 40180	43.643686900000006	-1.0953004000000002	clean	ES	Latin	canonical	node	7486286547	Groupe BMAZ
de-latin-canonical-0000000451	Juwelier Knewitz, Höfchen 4, Mainz 55116	49.9991216	8.272945700000001	clean	DE	Latin	canonical	node	7522375480	Juwelier Knewitz
at-latin-canonical-0000000452	bank99, Bahnhofstraße 30a, Telfs 6410	47.3029935	11.0730962	clean	AT	Latin	canonical	node	7580206237	bank99
fr-latin-canonical-0000000453	Albizia, Avenue des Sables 10 bis, Pouzauges 85700	46.7779194	-0.8436212000000001	clean	FR	Latin	canonical	node	7653224816	Albizia
br-latin-canonical-0000000454	Conjunto Santos Dumont	-2.5524235	-44.237768700000004	noisy	BR	Latin	canonical	node	7700835468	Conjunto Santos Dumont
in-latin-canonical-0000000455	Pedakurthi	18.083868900000002	81.4866793	noisy	IN	Latin	canonical	node	7761363589	Pedakurthi
at-latin-canonical-0000000456	Schneegrube	47.489535700000005	13.8856351	noisy	AT	Latin	canonical	node	7822866754	Schneegrube
us-latin-canonical-0000000457	Char Koon, Main Street 882, Glastonbury 06073	41.665883300000004	-72.6027893	clean	US	Latin	canonical	node	7827910764	Char Koon
in-latin-canonical-0000000458	Hanumanahalli	13.602417800000001	76.15526320000001	noisy	IN	Latin	canonical	node	7856371402	Hanumanahalli
at-latin-canonical-0000000459	Kniele Landtechnik, Buchauer Straße 6, Bad Schussenried 88427	48.0089252	9.653533300000001	clean	AT	Latin	canonical	node	7880146581	Kniele Landtechnik
fr-latin-canonical-0000000460	Mas Roux	44.975555400000005	5.562786200000001	noisy	FR	Latin	canonical	node	7887704983	Mas Roux
fr-latin-canonical-0000000461	Gîte 4**** Les Terrasses des Sielves, Chemin des Sielves 56	44.429282	4.1189077	noisy	FR	Latin	canonical	node	7892304361	Gîte 4**** Les Terrasses des Sielves
us-latin-canonical-0000000462	Darshan Friendly Mart, Broad Street 2244, Erie 16503	42.1252404	-80.04407780000001	clean	US	Latin	canonical	node	7896894929	Darshan Friendly Mart
gb-latin-canonical-0000000463	Tesco Restaurant, Armada Way 1, London E6 7ER	51.517242	0.0760618	clean	GB	Latin	canonical	node	7903578871	Tesco Restaurant
cn-latin-canonical-0000000464	Burhāpāra	20.3040716	82.66621830000001	noisy	CN	Latin	canonical	node	7945509034	Burhāpāra
cn-latin-canonical-0000000465	Waji	33.2763683	75.747664	noisy	CN	Latin	canonical	node	7973713697	Waji
es-latin-canonical-0000000466	Escuela de Estudios Integrales Avanza, Calle Buensuceso	37.1753724	-3.6024464000000003	noisy	ES	Latin	canonical	node	7977224685	Escuela de Estudios Integrales Avanza
nl-latin-canonical-0000000467	ALDI, Stadionplein 5, Leeuwarden 8914BX	53.201827800000004	5.7716653	clean	NL	Latin	canonical	node	7993100724	ALDI
it-latin-canonical-0000000468	FotoStudioImmagini di Giorgio Guardati, Corso Giuseppe Garibaldi 199	43.283386500000006	13.3289319	noisy	IT	Latin	canonical	node	8004103813	FotoStudioImmagini di Giorgio Guardati
cn-latin-canonical-0000000469	laluri	29.8412395	79.3167186	noisy	CN	Latin	canonical	node	8045342065	laluri
fr-latin-canonical-0000000470	La Métairie	45.718872000000005	-0.749529	noisy	FR	Latin	canonical	node	8113183357	La Métairie
fr-latin-canonical-0000000471	Micro-crèche Mère Poule, Avenue de La Brède 19, Léognan 33850	44.7247277	-0.5947124	clean	FR	Latin	canonical	node	8114435937	Micro-crèche Mère Poule
fr-latin-canonical-0000000472	Pré du Pont	44.4201646	3.0134779000000003	noisy	FR	Latin	canonical	node	8120392774	Pré du Pont
fr-latin-canonical-0000000473	Cascina Baraggia	45.223746500000004	8.932271	noisy	FR	Latin	canonical	node	8127048296	Cascina Baraggia
fr-latin-canonical-0000000474	Les Longues Roies	48.22444	5.0629740000000005	noisy	FR	Latin	canonical	node	8142211532	Les Longues Roies
fr-latin-canonical-0000000475	Buisson Laurent	48.2107843	5.1562134	noisy	FR	Latin	canonical	node	8145475471	Buisson Laurent
br-latin-canonical-0000000476	Agropecuária São Francisco, Avenida Carlos Sbaraini	-24.762409	-53.744848700000006	noisy	BR	Latin	canonical	node	8158865717	Agropecuária São Francisco
it-latin-canonical-0000000477	Lamacci	44.2913328	10.6209781	noisy	IT	Latin	canonical	node	8165439520	Lamacci
fr-latin-canonical-0000000478	Les Cerisiers	47.7170719	5.4631163	noisy	FR	Latin	canonical	node	8208732512	Les Cerisiers
cn-latin-canonical-0000000479	Garda	24.2682101	76.48282520000001	noisy	CN	Latin	canonical	node	8225528498	Garda
fr-latin-canonical-0000000480	Les Grandes Parts	48.4406994	4.7879187000000005	noisy	FR	Latin	canonical	node	8269536681	Les Grandes Parts
be-latin-canonical-0000000481	Le Chemin de Rocquigny	49.701331	4.2338977	noisy	BE	Latin	canonical	node	8281411925	Le Chemin de Rocquigny
gb-latin-canonical-0000000482	Nakad Unisex, Garratt Lane 340, London SW18 4EL	51.442612000000004	-0.18880940000000002	clean	GB	Latin	canonical	node	8284111817	Nakad Unisex
be-latin-canonical-0000000483	La Noue de Breux	49.5937429	5.3687469000000005	noisy	BE	Latin	canonical	node	8305125996	La Noue de Breux
be-latin-canonical-0000000484	Mouillipré	49.5937004	4.4414602	noisy	BE	Latin	canonical	node	8348188723	Mouillipré
at-latin-canonical-0000000485	Dr. med. Boris Pfanzagl-Vulic, Breiteweg 9, Bad Wurzach 88410	47.907363000000004	9.8940015	clean	AT	Latin	canonical	node	8356900762	Dr. med. Boris Pfanzagl-Vulic
it-latin-canonical-0000000486	Salam	46.1135838	10.7589029	noisy	IT	Latin	canonical	node	8361549204	Salam
it-latin-canonical-0000000487	Sant'Onofrio	41.709699900000004	13.743207000000002	noisy	IT	Latin	canonical	node	8468058102	Sant'Onofrio
de-latin-canonical-0000000488	Haus Stephanus, Europastraße 11, Aßlar 35614	50.587773000000006	8.4773945	clean	DE	Latin	canonical	node	8497704481	Haus Stephanus
br-latin-canonical-0000000489	Caboclo	-8.1258357	-37.1610645	noisy	BR	Latin	canonical	node	8500750345	Caboclo
jp-latin-canonical-0000000490	Buranko,  24, 仙台市 980-0014	38.266217600000004	140.8730027	noisy	JP	Latin	canonical	node	8502205020	Buranko
it-latin-canonical-0000000491	Piazza Italia	46.062756400000005	10.7113002	noisy	IT	Latin	canonical	node	8556131827	Piazza Italia
it-latin-canonical-0000000492	CartoCartoons, Via Tuscolana 294, Roma 00181	41.876006800000006	12.5266509	clean	IT	Latin	canonical	node	8585626429	CartoCartoons
it-latin-canonical-0000000493	Scrittura Persuasiva Consulenze Di Marketing e Copywriting, Via Giuseppe Ferrari Bonini 4, Reggio nell'Emilia 42121	44.701558600000006	10.6345506	clean	IT	Latin	canonical	node	8621189819	Scrittura Persuasiva Consulenze Di Marketing e Copywriting
us-latin-canonical-0000000494	Skynal Biotech, Corporate Drive 15, Wayne 07470	40.912933800000005	-74.2400472	clean	US	Latin	canonical	node	8689584958	Skynal Biotech
de-latin-canonical-0000000495	Linenberg	48.6325554	7.1089621	noisy	DE	Latin	canonical	node	8717135534	Linenberg
fr-latin-canonical-0000000496	Chez Favre	45.795818600000004	-0.8173689000000001	noisy	FR	Latin	canonical	node	8769954770	Chez Favre
us-latin-canonical-0000000497	Vyana Yoga, West Seneca Street 131, Manlius 13104	42.999645	-75.9820416	clean	US	Latin	canonical	node	8787440274	Vyana Yoga
ch-latin-canonical-0000000498	Niedere Matten	47.5838995	7.271371	noisy	CH	Latin	canonical	node	8816381913	Niedere Matten
ch-latin-canonical-0000000499	Schwarzaecker	47.6650702	7.076781	noisy	CH	Latin	canonical	node	8819694694	Schwarzaecker
fr-latin-canonical-0000000500	Faustine Lantillon-Ray, Vienne 38200	45.5226039	4.8728853	noisy	FR	Latin	canonical	node	8828263930	Faustine Lantillon-Ray
it-latin-canonical-0000000501	Sardi gioiellerie, Via Grande 160	43.550074900000006	10.3068535	noisy	IT	Latin	canonical	node	8857741106	Sardi gioiellerie
de-latin-canonical-0000000502	Ill	47.9559228	7.3914391	noisy	DE	Latin	canonical	node	8871228133	Ill
br-latin-canonical-0000000503	Vale do Sol	-21.071457000000002	-47.0528885	noisy	BR	Latin	canonical	node	8901910032	Vale do Sol
fr-latin-canonical-0000000504	Concize	48.1933251	3.8970846000000003	noisy	FR	Latin	canonical	node	8946086485	Concize
be-latin-canonical-0000000505	Les Grandes Bruyères	49.7959777	4.5791179	noisy	BE	Latin	canonical	node	8976298475	Les Grandes Bruyères
fr-latin-canonical-0000000506	Pellegrin et fils, Place Saint-Honoré 17, Aix-en-Provence 13100	43.5280197	5.449282	clean	FR	Latin	canonical	node	8978477669	Pellegrin et fils
be-latin-canonical-0000000507	Le Moulin à Vent	49.7383157	4.827982100000001	noisy	BE	Latin	canonical	node	8989248780	Le Moulin à Vent
it-latin-canonical-0000000508	OVS, Strada Statale Appia , Vitulazio	41.1514077	14.178302400000002	noisy	IT	Latin	canonical	node	9054645398	OVS
br-latin-canonical-0000000509	EMEB Antonio Batista de Lima, Povoado São Puca , Milagres do Maranhão 65545-000	-3.5286005	-42.731303100000005	noisy	BR	Latin	canonical	node	9056019724	EMEB Antonio Batista de Lima
de-latin-canonical-0000000510	Hirsch, Karlsruher Straße 34, Baden-Baden 76532	48.806515000000005	8.222686900000001	clean	DE	Latin	canonical	node	9217826422	Hirsch
de-latin-canonical-0000000511	Auto Beer, Dorfstraße 22a, Schleifreisen 07629	50.887525000000004	11.8258068	clean	DE	Latin	canonical	node	9266111295	Auto Beer
de-latin-canonical-0000000512	Coiffeur MaVie, Mariendorfer Damm 173, Berlin 12107	52.4363218	13.389129400000002	clean	DE	Latin	canonical	node	9286772299	Coiffeur MaVie
in-latin-canonical-0000000513	State Bank of India, Alathur 678541	10.6472917	76.54070970000001	noisy	IN	Latin	canonical	node	9293401973	State Bank of India
br-latin-canonical-0000000514	V&F Gráfica Rápida e Papelaria, Rua Juarez Tavares de Oliveira 297	-5.8049374	-38.312187200000004	noisy	BR	Latin	canonical	node	9295863816	V&F Gráfica Rápida e Papelaria
in-latin-canonical-0000000515	Post Office, Thalayazham, Vechur Bund Road ,  686607	9.7101348	76.41793	noisy	IN	Latin	canonical	node	9359893117	Post Office, Thalayazham
fr-latin-canonical-0000000516	Les Chaux	47.2781224	3.9655323000000005	noisy	FR	Latin	canonical	node	9360480704	Les Chaux
in-latin-canonical-0000000517	Kallai	10.7988394	78.47542630000001	noisy	IN	Latin	canonical	node	9365278689	Kallai
gb-latin-canonical-0000000518	Parc Ty'n-y-coed	53.0153606	-4.1221566	noisy	GB	Latin	canonical	node	9366153413	Parc Ty'n-y-coed
de-latin-canonical-0000000519	Dantersdorf	49.2319984	11.7024165	noisy	DE	Latin	canonical	node	9373175767	Dantersdorf
fr-latin-canonical-0000000520	Ouche Blanche	46.9052548	3.9018555000000004	noisy	FR	Latin	canonical	node	9373512510	Ouche Blanche
it-latin-canonical-0000000521	Para	44.146089	12.068448400000001	noisy	IT	Latin	canonical	node	9381441596	Para
de-latin-canonical-0000000522	Metzgerei Hoos, Södeler Straße 27, Wölfersheim 61200	50.3957947	8.8073843	clean	DE	Latin	canonical	node	9408279333	Metzgerei Hoos
de-latin-canonical-0000000523	Juwelier Altintac, Kaiserstraße 20, Siegburg 53721	50.7982786	7.2080805	clean	DE	Latin	canonical	node	9418451798	Juwelier Altintac
it-latin-canonical-0000000524	Orti di Prandaglio	45.6179951	10.4686014	noisy	IT	Latin	canonical	node	9422196353	Orti di Prandaglio
es-latin-canonical-0000000525	Terrac	43.003002	1.3049077	noisy	ES	Latin	canonical	node	9433767456	Terrac
es-latin-canonical-0000000526	Cimkey, Carrer de Tuset 20-24, 1º	41.3959841	2.1522759000000002	noisy	ES	Latin	canonical	node	9435206552	Cimkey
cn-latin-canonical-0000000527	Dhibra	24.1217277	85.86903330000001	noisy	CN	Latin	canonical	node	9484671386	Dhibra
de-latin-canonical-0000000528	Hausärztlich-internistische Praxis, Raisa Roitman, Allgemein- und Unfallmedizin, Dr. Elina Reichwagen, Internistin, Karl-Lehr-Straße 21, Wiesbaden 65201	50.045694000000005	8.1983013	clean	DE	Latin	canonical	node	9489377563	Hausärztlich-internistische Praxis, Raisa Roitman, Allgemein- und Unfallmedizin, Dr. Elina Reichwagen, Internistin
fr-latin-canonical-0000000529	Le Moulin de la Chasse	49.2781892	-0.6021479000000001	noisy	FR	Latin	canonical	node	9496706760	Le Moulin de la Chasse
fr-latin-canonical-0000000530	La Longagne, Quins 12800	44.214932600000004	2.3588285	noisy	FR	Latin	canonical	node	9500088981	La Longagne
de-latin-canonical-0000000531	GPEP GmbH, Schiede 18A, Limburg an der Lahn 65549	50.3878451	8.0588833	clean	DE	Latin	canonical	node	9511960189	GPEP GmbH
fr-latin-canonical-0000000532	A la Roche	45.510437100000004	1.8536210000000002	noisy	FR	Latin	canonical	node	9532008712	A la Roche
es-latin-canonical-0000000533	Sushidonosti, Errotaburu pasealekua 4, Donostia / San Sebastián 20018	43.3009147	-2.0045972	clean	ES	Latin	canonical	node	9560827672	Sushidonosti
cn-latin-canonical-0000000534	Gulkhersar	23.677287200000002	76.76608800000001	noisy	CN	Latin	canonical	node	9565456287	Gulkhersar
cn-latin-canonical-0000000535	Kolhuwa	24.530320900000003	80.9637826	noisy	CN	Latin	canonical	node	9585386339	Kolhuwa
fr-latin-canonical-0000000536	Mazzilli's Shop, Via Madonna in Campagna 43, Bollate 20021	45.547416600000005	9.1239924	clean	FR	Latin	canonical	node	9607667538	Mazzilli's Shop
cn-latin-canonical-0000000537	Asva	22.6684324	85.9952258	noisy	CN	Latin	canonical	node	9609741182	Asva
at-latin-canonical-0000000538	Verein Hebebühne, Wiener Straße 22, Tulln an der Donau 3430	48.331623	16.0575029	clean	AT	Latin	canonical	node	9627037173	Verein Hebebühne
es-latin-canonical-0000000539	Hotel Coral Beach, Avinguda de Cala Nova 63	39.004383600000004	1.5798734	noisy	ES	Latin	canonical	node	9644033917	Hotel Coral Beach
be-latin-canonical-0000000540	Chic&Choc, Rue Jean et Marcellin Truquin 14	49.908221100000006	2.5118236	noisy	BE	Latin	canonical	node	9649548455	Chic&Choc
es-latin-canonical-0000000541	La Xaveta Bicicletes, Carrer de Sant Pere 36, Calafell 43820	41.1881409	1.5695229000000002	clean	ES	Latin	canonical	node	9656753546	La Xaveta Bicicletes
ch-latin-canonical-0000000542	Les Onchères et le Venet	47.773317500000005	6.3641041000000005	noisy	CH	Latin	canonical	node	9671640739	Les Onchères et le Venet
au-latin-canonical-0000000543	Bottlemart, Main Street 28-34,  4555	-26.688791300000002	152.9595246	noisy	AU	Latin	canonical	node	9671925317	Bottlemart
cn-latin-canonical-0000000544	Tapdi Ka Khera	23.906731200000003	75.7097482	noisy	CN	Latin	canonical	node	9758690682	Tapdi Ka Khera
be-latin-canonical-0000000545	Auf dem Driesch	51.0781252	6.138795600000001	noisy	BE	Latin	canonical	node	9766013463	Auf dem Driesch
de-latin-canonical-0000000546	FFW Waffenrod-Hinterrod, Schulweg 31, Eisfeld 98673	50.475007600000005	10.9130468	clean	DE	Latin	canonical	node	9773011399	FFW Waffenrod-Hinterrod
be-latin-canonical-0000000547	An der Wilden Maar	51.009841300000005	6.2170848	noisy	BE	Latin	canonical	node	9784706441	An der Wilden Maar
in-latin-canonical-0000000548	KT trading Co, Calicut-Malappuram-Palakkad Road , mannarkkad 678582	10.994193200000002	76.46497480000001	noisy	IN	Latin	canonical	node	9790988635	KT trading Co
es-latin-canonical-0000000549	A Galega	42.835951900000005	-8.724191900000001	noisy	ES	Latin	canonical	node	9798428632	A Galega
de-latin-canonical-0000000550	Pusteblume, Kurhausstraße 88, Herne 44652	51.5238476	7.166366300000001	clean	DE	Latin	canonical	node	9804052225	Pusteblume
in-latin-canonical-0000000551	The Grill Street, Dev Arc Commercial Complex, 106, Iskcon Cross Rd, Near iscon cross road, Ramdev Nagar, Ahemedabad 380015	23.0267886	72.5079662	noisy	IN	Latin	canonical	node	9809086195	The Grill Street
ch-latin-canonical-0000000552	La Perla épicerie/restaurant, Chemin du Pré Fleuri 27, Plan-les-Ouates 1228	46.164985400000006	6.1071732	clean	CH	Latin	canonical	node	9862219972	La Perla épicerie/restaurant
fr-latin-canonical-0000000553	Roques	44.165712000000006	0.4369969	noisy	FR	Latin	canonical	node	9904592514	Roques
fr-latin-canonical-0000000554	Combrune	45.8315604	-0.7457725000000001	noisy	FR	Latin	canonical	node	9906509751	Combrune
fr-latin-canonical-0000000555	Le Pratel	44.9689168	1.9100650000000001	noisy	FR	Latin	canonical	node	9932560642	Le Pratel
fr-latin-canonical-0000000556	Bois du Breuil	46.160152200000006	-0.2918297	noisy	FR	Latin	canonical	node	9943513122	Bois du Breuil
br-latin-canonical-0000000557	Instituto Defesa Agropecuário Florestal do Estado do Espírito Santo - Idaf, Avenida Doutor Olivio Correa Pedrosa 566, Alegre 29500-000	-20.758981300000002	-41.534154900000004	clean	BR	Latin	canonical	node	9945690358	Instituto Defesa Agropecuário Florestal do Estado do Espírito Santo - Idaf
fr-latin-canonical-0000000558	Caves de la Rouillère	47.1383066	0.11179370000000001	noisy	FR	Latin	canonical	node	9990891130	Caves de la Rouillère
cn-latin-canonical-0000000559	Hadoli Saja	19.125970600000002	77.65623810000001	noisy	CN	Latin	canonical	node	9993202258	Hadoli Saja
fr-latin-canonical-0000000560	Blonnière	47.582729	0.510982	noisy	FR	Latin	canonical	node	9994989259	Blonnière
es-latin-canonical-0000000561	Le Crucifix	43.3233669	2.5194928	noisy	ES	Latin	canonical	node	10042055094	Le Crucifix
us-latin-canonical-0000000562	Roxolana International Trade, State Route 10 1152, Randolph 07869	40.8604477	-74.6234343	clean	US	Latin	canonical	node	10070031704	Roxolana International Trade
cn-latin-canonical-0000000563	Kelewasti	18.5229772	75.7254016	noisy	CN	Latin	canonical	node	10098644713	Kelewasti
fr-latin-canonical-0000000564	Salon de Thé, Grand'Rue 66, Ribeauvillé 68150	48.1951625	7.318822900000001	clean	FR	Latin	canonical	node	10115898533	Salon de Thé
de-latin-canonical-0000000565	Automobile Kleinz, Mainzer Straße 120, Bad Kreuznach 55545	49.8666677	7.9146597000000005	clean	DE	Latin	canonical	node	10151354203	Automobile Kleinz
gr-latin-canonical-0000000566	A fil lingerie, Σόλωνος 22, Αθήνα	37.9785619	23.7383519	noisy	GR	Latin	canonical	node	10156824928	A fil lingerie
us-latin-canonical-0000000567	Dunham's Sports, East Main Street 1001, Bradford 16701	41.9804532	-78.6196602	clean	US	Latin	canonical	node	10167720402	Dunham's Sports
de-latin-canonical-0000000568	dogado.group, Expo Plaza 1, Hannover 30539	52.320950200000006	9.8182962	clean	DE	Latin	canonical	node	10231761723	dogado.group
fr-latin-canonical-0000000569	Les Landes	48.416121200000006	-3.5332954	noisy	FR	Latin	canonical	node	10253367689	Les Landes
de-latin-canonical-0000000570	Malerfachbetrieb Seidler, Lindenstraße 8, Frauenprießnitz 07774	51.0174122	11.733741100000001	clean	DE	Latin	canonical	node	10269261137	Malerfachbetrieb Seidler
gb-latin-canonical-0000000571	Ardmarnock	55.902388	-5.3366923	noisy	GB	Latin	canonical	node	10290123982	Ardmarnock
cn-latin-canonical-0000000572	Bittu Di Chaa, Crystal Plaza Market 29, Jalandhar 144022	31.3038321	75.59584530000001	clean	CN	Latin	canonical	node	10297367045	Bittu Di Chaa
de-latin-canonical-0000000573	Hernicourt	48.996166800000005	6.4782168	noisy	DE	Latin	canonical	node	10301216912	Hernicourt
ch-latin-canonical-0000000574	Moncucco Alto	46.1549272	9.5193166	noisy	CH	Latin	canonical	node	10316377167	Moncucco Alto
fr-latin-canonical-0000000575	Ladies Cafè, Via Dante Di Nanni 55,  10138	45.067639	7.652132600000001	noisy	FR	Latin	canonical	node	10591519990	Ladies Cafè
es-latin-canonical-0000000576	Farmacia Jauregui, Avenida José Ortega y Gasset 38, Málaga 29006	36.711323400000005	-4.4467775000000005	clean	ES	Latin	canonical	node	10593975975	Farmacia Jauregui
in-latin-canonical-0000000577	Kaprikad	10.186877	76.534903	noisy	IN	Latin	canonical	node	10594796346	Kaprikad
br-latin-canonical-0000000578	Aluguel de Temporada, Rua das Gaivotas , Florianópolis 88058-500	-27.4353003	-48.3932014	noisy	BR	Latin	canonical	node	10653820362	Aluguel de Temporada
de-latin-canonical-0000000579	Kocatepe Camii Dortmund, Schlosserstraße 45, Dortmund 44145	51.5263398	7.481545400000001	clean	DE	Latin	canonical	node	10684122548	Kocatepe Camii Dortmund
fr-latin-canonical-0000000580	Le Baubelin	47.0983991	1.0644219000000001	noisy	FR	Latin	canonical	node	10697489982	Le Baubelin
br-latin-canonical-0000000581	Curimatã	-4.190168600000001	-38.534401700000004	noisy	BR	Latin	canonical	node	10707793402	Curimatã
ch-latin-canonical-0000000582	Morgenstern	47.6018496	8.8836568	noisy	CH	Latin	canonical	node	10725587018	Morgenstern
gb-latin-canonical-0000000583	Marleigh Nursery, Cambridge CB5 8UW	52.2127886	0.1808834	noisy	GB	Latin	canonical	node	10780099705	Marleigh Nursery
cn-latin-canonical-0000000584	Jangal	29.645558200000004	80.4195116	noisy	CN	Latin	canonical	node	10805239107	Jangal
gb-latin-canonical-0000000585	Harleyfield Grove	51.994238300000006	0.2649281	noisy	GB	Latin	canonical	node	10813018055	Harleyfield Grove
fr-latin-canonical-0000000586	Les Loges	48.139385100000005	3.5834867000000004	noisy	FR	Latin	canonical	node	10819762129	Les Loges
ch-latin-canonical-0000000587	Neuscheuer	46.9566025	7.906862500000001	noisy	CH	Latin	canonical	node	10820137706	Neuscheuer
fr-latin-canonical-0000000588	La Fertais	48.0990485	-1.4563027000000002	noisy	FR	Latin	canonical	node	10842164989	La Fertais
at-latin-canonical-0000000589	Kleiner Anger	46.7784011	11.692861200000001	noisy	AT	Latin	canonical	node	10863054587	Kleiner Anger
it-latin-canonical-0000000590	Magap Nutrition, Via Gabriele Caiulo 24	40.3481006	18.195488	noisy	IT	Latin	canonical	node	10882878146	Magap Nutrition
be-latin-canonical-0000000591	Tiebiewe	50.1501123	5.6638887	noisy	BE	Latin	canonical	node	10957907720	Tiebiewe
it-latin-canonical-0000000592	La Chicca, Via Arcangelo 14, Ruvo di Puglia 70037	41.116907000000005	16.4855355	clean	IT	Latin	canonical	node	10981427024	La Chicca
de-latin-canonical-0000000593	Auf dem Wasen	50.0400186	9.0269744	noisy	DE	Latin	canonical	node	11008066496	Auf dem Wasen
de-latin-canonical-0000000594	Breitenbach	50.1769041	10.729629300000001	noisy	DE	Latin	canonical	node	11010321352	Breitenbach
ch-latin-canonical-0000000595	Macif, Route de Thonon 65, Annemasse 74100	46.1943756	6.257604000000001	clean	CH	Latin	canonical	node	11038745241	Macif
fr-latin-canonical-0000000596	Mairie de La Nocle-Maulaix, Route du Grand Chemin 5, La Nocle-Maulaix 58250	46.763849500000006	3.7816156000000003	clean	FR	Latin	canonical	node	11059673494	Mairie de La Nocle-Maulaix
fr-latin-canonical-0000000597	U Corsu	42.5893012	8.9064154	noisy	FR	Latin	canonical	node	11070606237	U Corsu
es-latin-canonical-0000000598	A Fonte	43.707303100000004	-7.6902039	noisy	ES	Latin	canonical	node	11083685694	A Fonte
de-latin-canonical-0000000599	Anke von Nostitz-Wallwitz, Bismarckstraße 32, Nienburg (Weser) 31582	52.645215400000005	9.2115259	clean	DE	Latin	canonical	node	11087475152	Anke von Nostitz-Wallwitz
es-latin-canonical-0000000600	La Novenera	37.1837686	-5.7461149	noisy	ES	Latin	canonical	node	11097941808	La Novenera
br-latin-canonical-0000000601	Aliança	-16.8895632	-40.3229356	noisy	BR	Latin	canonical	node	11146462613	Aliança
cn-latin-canonical-0000000602	Jankhara	23.281260900000003	74.7048546	noisy	CN	Latin	canonical	node	11181801868	Jankhara
es-latin-canonical-0000000603	Equipo de Orientación Educativa y Psicopedagógica General Móstoles, Calle de París 7,  28938	40.3152033	-3.8619000000000003	noisy	ES	Latin	canonical	node	11188996622	Equipo de Orientación Educativa y Psicopedagógica General Móstoles
fr-latin-canonical-0000000604	Raffles Milano Istituto Moda e Design, Via Felice Casati 16, Milano 20124	45.4784738	9.204465	clean	FR	Latin	canonical	node	11208368586	Raffles Milano Istituto Moda e Design
de-latin-canonical-0000000605	Im Hahnenpeck	50.503406600000005	7.509966500000001	noisy	DE	Latin	canonical	node	11218566665	Im Hahnenpeck
de-latin-canonical-0000000606	Allianz, Rödelstraße 16	51.318803300000006	12.342303900000001	noisy	DE	Latin	canonical	node	11222547417	Allianz
ch-latin-canonical-0000000607	Egg	47.2078603	9.3548313	noisy	CH	Latin	canonical	node	11242768284	Egg
gb-latin-canonical-0000000608	Petit Gateau Rora Ha, Snig Hill 28, Sheffield S3 8NB	53.3852057	-1.4666455	clean	GB	Latin	canonical	node	11244835697	Petit Gateau Rora Ha
es-latin-canonical-0000000609	Cabeçó	38.553067600000006	-0.41441350000000005	noisy	ES	Latin	canonical	node	11265075515	Cabeçó
us-latin-canonical-0000000610	Catalina's Cafe, West Philadelphia Street 46, York 17401	39.963338400000005	-76.72984650000001	clean	US	Latin	canonical	node	11287509724	Catalina's Cafe
gb-latin-canonical-0000000611	10 Design, Princes Street 132, Edinburgh EH2 4AH	55.9507161	-3.2053357	clean	GB	Latin	canonical	node	11374524099	10 Design
it-latin-canonical-0000000612	Caffe 78, Via Oberdan 33a	40.4671815	17.245938300000002	noisy	IT	Latin	canonical	node	11377429849	Caffe 78
in-latin-canonical-0000000613	Aadhireddy Palli	14.8393466	78.7868256	noisy	IN	Latin	canonical	node	11381990190	Aadhireddy Palli
cn-latin-canonical-0000000614	Thuniyaudnad	22.0396775	78.87077160000001	noisy	CN	Latin	canonical	node	11392713044	Thuniyaudnad
ch-latin-canonical-0000000615	Plaun Grond	46.7121069	8.8823789	noisy	CH	Latin	canonical	node	11411622317	Plaun Grond
fr-latin-canonical-0000000616	Atelier Canopé 22, Rue Yves Salaün 8, Guingamp 22200	48.560751800000006	-3.1440605	clean	FR	Latin	canonical	node	11447465975	Atelier Canopé 22
in-latin-canonical-0000000617	Angel matrimony, kallara Angel matrimony, Thiruvananthapuram	8.752372300000001	76.93949140000001	noisy	IN	Latin	canonical	node	11458263833	Angel matrimony
gb-latin-canonical-0000000618	Wick Head, High Street 205, Blackwood NP12 1AA	51.664865500000005	-3.1939937	clean	GB	Latin	canonical	node	11460179707	Wick Head
fr-latin-canonical-0000000619	Subway, Gammons Hill , Axminster EX13 7RB	50.7785148	-3.0303842000000003	noisy	FR	Latin	canonical	node	11483337089	Subway
es-latin-canonical-0000000620	Tapicería Málaga Car, Calle Alcalde Eduardo Carvajal 4,  29014	36.738689400000005	-4.4222573	noisy	ES	Latin	canonical	node	11496597969	Tapicería Málaga Car
fr-latin-canonical-0000000621	Le Petit Hoté	48.5033721	-2.5066002000000003	noisy	FR	Latin	canonical	node	11521349588	Le Petit Hoté
de-latin-canonical-0000000622	ROFU Kinderland, Daimlerstraße 61, Michelfeld 74545	49.101588	9.6963013	clean	DE	Latin	canonical	node	11637488928	ROFU Kinderland
br-latin-canonical-0000000623	Escola Municipal Antônio Carlos Magalhães, Caetité 46420-000	-13.6337396	-42.571811800000006	noisy	BR	Latin	canonical	node	11681322780	Escola Municipal Antônio Carlos Magalhães
es-latin-canonical-0000000624	Bar Casal, Plaça Major 5, Juncosa 25165	41.3714333	0.7755344000000001	clean	ES	Latin	canonical	node	11747748397	Bar Casal
gb-latin-canonical-0000000625	St Augustine's Catholic Church, Grosvenor Square , Manchester M15 6BW	53.470037600000005	-2.2392761	noisy	GB	Latin	canonical	node	11765933346	St Augustine's Catholic Church
ch-latin-canonical-0000000626	Montelino KidsClub, St. Gallerstrasse 118, Jona 8645	47.2298698	8.8481377	clean	CH	Latin	canonical	node	11773040692	Montelino KidsClub
us-latin-canonical-0000000627	Anafe Restaurant, Mulberry Street 1222, Harrisburg 17104	40.262916700000005	-76.8703373	clean	US	Latin	canonical	node	11778823570	Anafe Restaurant
ch-latin-canonical-0000000628	Prés Prieur	47.2855074	7.1856289	noisy	CH	Latin	canonical	node	11846864080	Prés Prieur
es-latin-canonical-0000000629	La Marchande	43.743462900000004	1.0681141	noisy	ES	Latin	canonical	node	11851302847	La Marchande
us-latin-canonical-0000000630	Vinicio's Restaurant, 108th Street 40-21	40.7501821	-73.85826	noisy	US	Latin	canonical	node	11861524170	Vinicio's Restaurant
at-latin-canonical-0000000631	Lusern	47.3654073	9.5780466	noisy	AT	Latin	canonical	node	11878235766	Lusern
br-latin-canonical-0000000632	Vila Tolstói	-23.599136100000003	-46.524903800000004	noisy	BR	Latin	canonical	node	11880166657	Vila Tolstói
ru-latin-canonical-0000000633	Speak English, проспект Ямашева 10	55.8264859	49.0895303	noisy	RU	Latin	canonical	node	11884318178	Speak English
de-latin-canonical-0000000634	Buchführungsservice, Bötzseestraße 119, Petershagen/Eggersdorf 15345	52.5398318	13.8317575	clean	DE	Latin	canonical	node	11914575727	Buchführungsservice
fr-latin-canonical-0000000635	Saint-Genès	45.7956413	2.6416513000000004	noisy	FR	Latin	canonical	node	11948228234	Saint-Genès
it-latin-canonical-0000000636	La Baita, Via Case Sparse 63, Ronzo-Chienis 38060	45.8982225	10.9746652	clean	IT	Latin	canonical	node	11989730056	La Baita
ch-latin-canonical-0000000637	patisserie.ch, Route de Fribourg 48, La Roche 1634	46.699142300000005	7.1433571	clean	CH	Latin	canonical	node	12015429315	patisserie.ch
fr-latin-canonical-0000000638	La Vaure	45.367279100000005	0.18957780000000002	noisy	FR	Latin	canonical	node	12042967956	La Vaure
br-latin-canonical-0000000639	Galpão Pará Guardar Materiais de Consruc, Rua Rio Peruipe 86,  45936-000	-17.999583100000002	-39.8717935	noisy	BR	Latin	canonical	node	12073302011	Galpão Pará Guardar Materiais de Consruc
es-latin-canonical-0000000640	BonÀrea, Carrer Eivissa 16, Tarragona	41.1140118	1.243787	noisy	ES	Latin	canonical	node	12080697464	BonÀrea
es-latin-canonical-0000000641	Couhos	43.6207318	0.3656471	noisy	ES	Latin	canonical	node	12083129007	Couhos
fr-latin-canonical-0000000642	Office de tourisme, Place de l'Ancienne Mairie 3, Puycelsi 81140	43.992919900000004	1.7107432	clean	FR	Latin	canonical	node	12104556466	Office de tourisme
us-latin-canonical-0000000643	The Shed, Main Street 2647, Rangeley 04970	44.9669158	-70.6492583	clean	US	Latin	canonical	node	12111916346	The Shed
ch-latin-canonical-0000000644	Steg	47.326539700000005	9.2216391	noisy	CH	Latin	canonical	node	12164986252	Steg
it-latin-canonical-0000000645	Maury's, Via Teresa Boetti Valvassura 112, Roma 00139	41.9603198	12.5353825	clean	IT	Latin	canonical	node	12176229003	Maury's
es-latin-canonical-0000000646	Casquinte	42.434655	-7.7677716000000006	noisy	ES	Latin	canonical	node	12241314693	Casquinte
it-latin-canonical-0000000647	Carpisa, Viale del Commercio 52, Ascoli Piceno 63100	42.8454837	13.6228356	clean	IT	Latin	canonical	node	12271289402	Carpisa
ru-latin-canonical-0000000648	Da Vinci, Тверская улица 66/1	56.475594	84.9718761	noisy	RU	Latin	canonical	node	12347752171	Da Vinci
fr-latin-canonical-0000000649	C'est Mimi, Rue au Blé 31	49.640494700000005	-1.6246858000000002	noisy	FR	Latin	canonical	node	12356863593	C'est Mimi
ch-latin-canonical-0000000650	Kohlersgraben	46.8746358	7.415484500000001	noisy	CH	Latin	canonical	node	12411573352	Kohlersgraben
be-latin-canonical-0000000651	Zoë & Zita, Bergstraat 101, Heist-op-den-Berg 2220	51.076356200000006	4.7206852	clean	BE	Latin	canonical	node	12443781127	Zoë & Zita
ch-latin-canonical-0000000652	ABC-Reinigung, Eugen-Huber-Strasse 12	47.3850598	8.485311000000001	noisy	CH	Latin	canonical	node	12466938743	ABC-Reinigung
es-latin-canonical-0000000653	Maria Gonzalez, Carrer de la Magdalena 32, Lleida 25007	41.6189909	0.6291775000000001	clean	ES	Latin	canonical	node	12475729344	Maria Gonzalez
fr-latin-canonical-0000000654	La Bourgeoisie	48.942254000000005	-0.7470789000000001	noisy	FR	Latin	canonical	node	12504224229	La Bourgeoisie
fr-latin-canonical-0000000655	Les Fosses	48.886674600000006	-0.9749879	noisy	FR	Latin	canonical	node	12508896527	Les Fosses
fr-latin-canonical-0000000656	La Campagne	47.178802000000005	1.7985680000000002	noisy	FR	Latin	canonical	node	12569347584	La Campagne
at-latin-canonical-0000000657	Breite Äcker	48.8541899	15.436372700000002	noisy	AT	Latin	canonical	node	12595176108	Breite Äcker
es-latin-canonical-0000000658	Plan de Cazaoux	42.9930928	0.9308660000000001	noisy	ES	Latin	canonical	node	12595516240	Plan de Cazaoux
ch-latin-canonical-0000000659	Lindenboden	46.8329102	7.790724300000001	noisy	CH	Latin	canonical	node	12597103653	Lindenboden
fr-latin-canonical-0000000660	La Coudre	49.1826608	0.2927673	noisy	FR	Latin	canonical	node	12620258837	La Coudre
fr-latin-canonical-0000000661	Borgata Case Sottane	43.852146100000006	7.8886868	noisy	FR	Latin	canonical	node	12629114044	Borgata Case Sottane
at-latin-canonical-0000000662	Küpferling	47.85884840000001	12.111421100000001	noisy	AT	Latin	canonical	node	12666502861	Küpferling
br-latin-canonical-0000000663	Pastro Supermercado, Rua Julieta Mira Ferreira 350	-26.411546100000002	-48.7901545	noisy	BR	Latin	canonical	node	12687233239	Pastro Supermercado
ch-latin-canonical-0000000664	Stroili, Via Enzo Ratti 2, Montano Lucino 22070	45.7866342	9.0477217	clean	CH	Latin	canonical	node	12766061891	Stroili
nl-latin-canonical-0000000665	Verdomhoekje	52.0934431	5.104338	noisy	NL	Latin	canonical	node	12816541398	Verdomhoekje
br-latin-canonical-0000000666	Nossa Senhora de Fátima	-18.171488800000002	-47.928131	noisy	BR	Latin	canonical	node	12865110855	Nossa Senhora de Fátima
br-latin-canonical-0000000667	Jardim do Gravatá, Rodovia Luiz Gonzaga , Bezerros	-8.2300368	-35.712417	noisy	BR	Latin	canonical	node	12887507254	Jardim do Gravatá
it-latin-canonical-0000000668	Bar Dello Sport, Via Torquato Tasso , Fermignano 61033	43.668210200000004	12.644655400000001	noisy	IT	Latin	canonical	node	12896223195	Bar Dello Sport
it-latin-canonical-0000000669	Casanuova	43.9294452	12.0988375	noisy	IT	Latin	canonical	node	12916863212	Casanuova
de-latin-canonical-0000000670	Gujrat Spice Restaurant, Rathenower Straße 6,  10559	52.52494050000001	13.3571538	noisy	DE	Latin	canonical	node	12917424718	Gujrat Spice Restaurant
fr-latin-canonical-0000000671	Le Port Pan	49.247207	1.3805379	noisy	FR	Latin	canonical	node	12943332697	Le Port Pan
fr-latin-canonical-0000000672	L'Enclose des Hérons	46.3568434	-1.3473058	noisy	FR	Latin	canonical	node	12971880487	L'Enclose des Hérons
fr-latin-canonical-0000000673	La Touche Brillouet	46.5259884	-1.0343349000000002	noisy	FR	Latin	canonical	node	12976851375	La Touche Brillouet
br-latin-canonical-0000000674	Tanque	-14.122966900000002	-42.2966338	noisy	BR	Latin	canonical	node	12980256604	Tanque
de-latin-canonical-0000000675	Große Wehrn	50.36475050000001	8.885225	noisy	DE	Latin	canonical	node	12997929632	Große Wehrn
de-latin-canonical-0000000676	Am Weikerborn	50.1857824	8.8906323	noisy	DE	Latin	canonical	node	13014407502	Am Weikerborn
de-latin-canonical-0000000677	Safran Küche, Mergenthalerallee 4, Eschborn 65760	50.133453300000006	8.5684457	clean	DE	Latin	canonical	node	13016752534	Safran Küche
br-latin-canonical-0000000678	Hunter Cel, Rua Cônego Tomaz 42, Santo Antônio do Pinhal 12450000	-22.825596700000002	-45.664269000000004	clean	BR	Latin	canonical	node	13019156405	Hunter Cel
br-latin-canonical-0000000679	Quadra 07	-15.581234100000001	-56.122606100000006	noisy	BR	Latin	canonical	node	13041812948	Quadra 07
de-latin-canonical-0000000680	Yasar Shop + Hermes Versand, Eichenweg 3, Wülfrath 42489	51.274134000000004	7.0258615	clean	DE	Latin	canonical	node	13059396823	Yasar Shop + Hermes Versand
at-latin-canonical-0000000681	Hösam	48.6084611	13.165947500000001	noisy	AT	Latin	canonical	node	13121081015	Hösam
cn-latin-canonical-0000000682	Girliguma	19.1256889	82.85331400000001	noisy	CN	Latin	canonical	node	13121273243	Girliguma
es-latin-canonical-0000000683	Ana Espinar, Avenida de Europa 31,  28224	40.4443807	-3.7897941000000004	noisy	ES	Latin	canonical	node	13124621701	Ana Espinar
fr-latin-canonical-0000000684	Les Picouleaux	47.712624000000005	0.21496300000000002	noisy	FR	Latin	canonical	node	13125729029	Les Picouleaux
cn-latin-canonical-0000000685	Gulguli	19.6459201	83.44349310000001	noisy	CN	Latin	canonical	node	13131508630	Gulguli
cn-latin-canonical-0000000686	Sitanagram	18.7104357	80.31463910000001	noisy	CN	Latin	canonical	node	13144507010	Sitanagram
cn-latin-canonical-0000000687	Aswara	33.798149200000005	75.156081	noisy	CN	Latin	canonical	node	13148825414	Aswara
gb-latin-canonical-0000000688	Travis Perkins, Witan Park unit 3a, Witney OX28 4FH	51.776306000000005	-1.4859122	clean	GB	Latin	canonical	node	13203804549	Travis Perkins
fr-latin-canonical-0000000689	Pièce à Gouzyl	47.504868	0.3822315	noisy	FR	Latin	canonical	node	13208557597	Pièce à Gouzyl
es-latin-canonical-0000000690	Naia Poke Bowl, Calle Joaquín María López 12,  03400	38.6323178	-0.8645281	noisy	ES	Latin	canonical	node	13239815601	Naia Poke Bowl
es-latin-canonical-0000000691	Merle Speciality Coffee, Carrer de Lepant 338,  08025	41.4073937	2.1729745	noisy	ES	Latin	canonical	node	13260241691	Merle Speciality Coffee
nl-latin-canonical-0000000692	Geldmaat, Dorpstraat 48, Ulvenhout 4851CM	51.55145	4.796931000000001	clean	NL	Latin	canonical	node	13271117167	Geldmaat
