query_id	query_text	gold_lat	gold_lon	quality_class	assigned_country	script_family	query_form	osm_kind	osm_id	name
cn-hangul-canonical-0000000001	수원시	37.263332500000004	127.02874720000001	noisy	CN	Hangul	canonical	node	257764593	수원시
cn-hangul-canonical-0000000002	케이마트, 제주시	33.4997952	126.5166123	noisy	CN	Hangul	canonical	node	368697790	케이마트
cn-hangul-canonical-0000000003	포항 그린 모텔, 문예로100번길 4-1, 포항시 37820	36.0156282	129.3662941	clean	CN	Hangul	canonical	node	368718302	포항 그린 모텔
kr-hangul-canonical-0000000004	백마동물병원, 인천광역시	37.502500000000005	126.7219	noisy	KR	Hangul	canonical	node	368760183	백마동물병원
cn-hangul-canonical-0000000005	서울이문동우체국, 이문로 131, 서울특별시 02403	37.5985269	127.06122710000001	clean	CN	Hangul	canonical	node	368875127	서울이문동우체국
cn-hangul-canonical-0000000006	서울상록회관우체국, 언주로 508, 서울특별시 06152	37.503740400000005	127.04285010000001	clean	CN	Hangul	canonical	node	368875730	서울상록회관우체국
cn-hangul-canonical-0000000007	춘천석사동우체국, 우석로 39, 춘천시 24393	37.8630684	127.7501268	clean	CN	Hangul	canonical	node	368877462	춘천석사동우체국
cn-hangul-canonical-0000000008	향교동 행정복지센터, 붕맛1길 10, 남원시 55741	35.4170314	127.38079090000001	clean	CN	Hangul	canonical	node	368902635	향교동 행정복지센터
cn-hangul-canonical-0000000009	설천면사무소, 설천로 695, 남해군 52401	34.9248996	127.91400010000001	clean	CN	Hangul	canonical	node	368903734	설천면사무소
cn-hangul-canonical-0000000010	양곡중학교, 양곡4로 138,  10057	37.6596252	126.6252149	noisy	CN	Hangul	canonical	node	368924271	양곡중학교
kr-hangul-canonical-0000000011	부평 관광호텔, 인천광역시	37.5158445	126.72181880000001	noisy	KR	Hangul	canonical	node	368952301	부평 관광호텔
cn-hangul-canonical-0000000012	동해회집, 홍릉로3길 12, 서울특별시 02573	37.581835000000005	127.043621	clean	CN	Hangul	canonical	node	368955069	동해회집
cn-hangul-canonical-0000000013	모현 제일아파트(저층), 선화로10길 10, 익산시 54661	35.9472651	126.9455176	clean	CN	Hangul	canonical	node	414894490	모현 제일아파트(저층)
cn-hangul-canonical-0000000014	화정면	35.28083	128.22271	noisy	CN	Hangul	canonical	node	414978959	화정면
cn-hangul-canonical-0000000015	용산리	35.74895	127.00198	noisy	CN	Hangul	canonical	node	414979045	용산리
cn-hangul-canonical-0000000016	외석리	35.45743	129.03601	noisy	CN	Hangul	canonical	node	414979558	외석리
cn-hangul-canonical-0000000017	감노리	35.33366	128.92857	noisy	CN	Hangul	canonical	node	414980058	감노리
cn-hangul-canonical-0000000018	무릉리	35.323660000000004	128.51997	noisy	CN	Hangul	canonical	node	414980083	무릉리
cn-hangul-canonical-0000000019	상리	35.28549	128.25364000000002	noisy	CN	Hangul	canonical	node	415143646	상리
cn-hangul-canonical-0000000020	월암리	35.41382	126.47985000000001	noisy	CN	Hangul	canonical	node	415143843	월암리
cn-hangul-canonical-0000000021	남죽리	35.2560647	126.4827712	noisy	CN	Hangul	canonical	node	415143867	남죽리
cn-hangul-canonical-0000000022	해리면	35.47524	126.51611000000001	noisy	CN	Hangul	canonical	node	415144023	해리면
cn-hangul-canonical-0000000023	월암리	35.42411	126.73092000000001	noisy	CN	Hangul	canonical	node	415144176	월암리
cn-hangul-canonical-0000000024	황룡리	35.26601	126.74193000000001	noisy	CN	Hangul	canonical	node	415144184	황룡리
cn-hangul-canonical-0000000025	반룡리	35.29684	126.98355000000001	noisy	CN	Hangul	canonical	node	415144689	반룡리
cn-hangul-canonical-0000000026	부민동3가	35.10387	129.01657	noisy	CN	Hangul	canonical	node	415144989	부민동3가
cn-hangul-canonical-0000000027	반여동	35.2044407	129.12197220000002	noisy	CN	Hangul	canonical	node	415145060	반여동
cn-hangul-canonical-0000000028	삼락동	35.1837761	128.97918950000002	noisy	CN	Hangul	canonical	node	415145188	삼락동
cn-hangul-canonical-0000000029	여항면	35.19485	128.44247000000001	noisy	CN	Hangul	canonical	node	415145504	여항면
cn-hangul-canonical-0000000030	수정동	35.197418	128.0859349	noisy	CN	Hangul	canonical	node	415145590	수정동
cn-hangul-canonical-0000000031	동례리	35.10746	128.18849	noisy	CN	Hangul	canonical	node	415145681	동례리
cn-hangul-canonical-0000000032	영보리	34.82584	126.73783	noisy	CN	Hangul	canonical	node	415146115	영보리
cn-hangul-canonical-0000000033	쌍촌동	35.152147	126.86269630000001	noisy	CN	Hangul	canonical	node	415146264	쌍촌동
cn-hangul-canonical-0000000034	태령동	35.251454700000004	126.92770820000001	noisy	CN	Hangul	canonical	node	415146315	태령동
cn-hangul-canonical-0000000035	문흥동	35.1879593	126.92506730000001	noisy	CN	Hangul	canonical	node	415146316	문흥동
cn-hangul-canonical-0000000036	서태리	35.0428441	126.94150010000001	noisy	CN	Hangul	canonical	node	415146332	서태리
cn-hangul-canonical-0000000037	용산동	35.1192086	126.92466300000001	noisy	CN	Hangul	canonical	node	415146380	용산동
cn-hangul-canonical-0000000038	어왕리	35.09394	127.22042	noisy	CN	Hangul	canonical	node	415146635	어왕리
cn-hangul-canonical-0000000039	창호리	34.9543662	128.5201767	noisy	CN	Hangul	canonical	node	415146662	창호리
cn-hangul-canonical-0000000040	산방리	34.860969600000004	128.5279618	noisy	CN	Hangul	canonical	node	415146671	산방리
cn-hangul-canonical-0000000041	외간리	34.8637068	128.572235	noisy	CN	Hangul	canonical	node	415146674	외간리
cn-hangul-canonical-0000000042	금산리	34.752230100000006	126.1555517	noisy	CN	Hangul	canonical	node	415147500	금산리
cn-hangul-canonical-0000000043	장감리	34.82284	126.3357	noisy	CN	Hangul	canonical	node	415147603	장감리
cn-hangul-canonical-0000000044	도대리	34.955814100000005	126.4008168	noisy	CN	Hangul	canonical	node	415147709	도대리
cn-hangul-canonical-0000000045	덕암동	34.945977400000004	127.5064942	noisy	CN	Hangul	canonical	node	415147776	덕암동
cn-hangul-canonical-0000000046	도이동	34.9317936	127.67334960000001	noisy	CN	Hangul	canonical	node	415147838	도이동
cn-hangul-canonical-0000000047	마룡리	34.992180000000005	127.74681000000001	noisy	CN	Hangul	canonical	node	415147869	마룡리
cn-hangul-canonical-0000000048	기린리	35.568580000000004	126.77449000000001	noisy	CN	Hangul	canonical	node	415147883	기린리
cn-hangul-canonical-0000000049	상대리	35.77863	128.79066	noisy	CN	Hangul	canonical	node	415148470	상대리
cn-hangul-canonical-0000000050	고죽리	35.82466	128.8672	noisy	CN	Hangul	canonical	node	415148584	고죽리
cn-hangul-canonical-0000000051	구암동	35.929559000000005	128.5581603	noisy	CN	Hangul	canonical	node	415148718	구암동
cn-hangul-canonical-0000000052	파동	35.814728800000005	128.6153796	noisy	CN	Hangul	canonical	node	415148817	파동
cn-hangul-canonical-0000000053	심천리	35.970530000000004	128.51268000000002	noisy	CN	Hangul	canonical	node	415148856	심천리
cn-hangul-canonical-0000000054	한기리	35.87411	127.92127	noisy	CN	Hangul	canonical	node	415149508	한기리
cn-hangul-canonical-0000000055	산북동	35.964160400000004	126.6768926	noisy	CN	Hangul	canonical	node	415149775	산북동
cn-hangul-canonical-0000000056	소양면	35.8573583	127.24876090000001	noisy	CN	Hangul	canonical	node	415149830	소양면
cn-hangul-canonical-0000000057	황운리	35.8510392	127.24086930000001	noisy	CN	Hangul	canonical	node	415150349	황운리
cn-hangul-canonical-0000000058	원정리	35.65375	128.76585	noisy	CN	Hangul	canonical	node	415150588	원정리
cn-hangul-canonical-0000000059	중대리	35.58068	128.50813	noisy	CN	Hangul	canonical	node	415150690	중대리
cn-hangul-canonical-0000000060	수야리	35.685230000000004	128.64273	noisy	CN	Hangul	canonical	node	415150806	수야리
cn-hangul-canonical-0000000061	황정리	35.529250000000005	128.28398	noisy	CN	Hangul	canonical	node	415150834	황정리
cn-hangul-canonical-0000000062	계남면	35.693740000000005	127.58013000000001	noisy	CN	Hangul	canonical	node	415151294	계남면
cn-hangul-canonical-0000000063	연덕리	35.51362	127.67165000000001	noisy	CN	Hangul	canonical	node	415151332	연덕리
cn-hangul-canonical-0000000064	선은리	35.7343005	126.73979480000001	noisy	CN	Hangul	canonical	node	415151452	선은리
cn-hangul-canonical-0000000065	난산리	35.58794	126.71678000000001	noisy	CN	Hangul	canonical	node	415151468	난산리
cn-hangul-canonical-0000000066	노동리	34.782650000000004	127.35745000000001	noisy	CN	Hangul	canonical	node	415151640	노동리
cn-hangul-canonical-0000000067	청호동	38.19843	128.59523000000002	noisy	CN	Hangul	canonical	node	415151943	청호동
cn-hangul-canonical-0000000068	주문리	37.8940702	128.826413	noisy	CN	Hangul	canonical	node	415152344	주문리
cn-hangul-canonical-0000000069	북분리	37.983900000000006	128.73434	noisy	CN	Hangul	canonical	node	415152386	북분리
cn-hangul-canonical-0000000070	강촌리	37.805197500000006	127.6186718	noisy	CN	Hangul	canonical	node	415152499	강촌리
cn-hangul-canonical-0000000071	신북면	37.9456	127.17838	noisy	CN	Hangul	canonical	node	415152940	신북면
cn-hangul-canonical-0000000072	산계리	37.575990000000004	128.96327	noisy	CN	Hangul	canonical	node	415153051	산계리
cn-hangul-canonical-0000000073	금남리	37.635274200000005	127.34957530000001	noisy	CN	Hangul	canonical	node	415153532	금남리
cn-hangul-canonical-0000000074	향동동	37.5981644	126.8909859	noisy	CN	Hangul	canonical	node	415153675	향동동
cn-hangul-canonical-0000000075	행촌동	37.57425	126.96215000000001	noisy	CN	Hangul	canonical	node	415153798	행촌동
cn-hangul-canonical-0000000076	잠원동	37.51662	127.00865	noisy	CN	Hangul	canonical	node	415153958	잠원동
cn-hangul-canonical-0000000077	보문동6가	37.580470000000005	127.01856000000001	noisy	CN	Hangul	canonical	node	415154000	보문동6가
cn-hangul-canonical-0000000078	청량리동	37.58831	127.0459	noisy	CN	Hangul	canonical	node	415154035	청량리동
cn-hangul-canonical-0000000079	노원구	37.654	127.0567	noisy	CN	Hangul	canonical	node	415154105	노원구
cn-hangul-canonical-0000000080	초곡리	37.30455	129.28923	noisy	CN	Hangul	canonical	node	415154196	초곡리
cn-hangul-canonical-0000000081	사직동	37.4282166	129.1719059	noisy	CN	Hangul	canonical	node	415154230	사직동
cn-hangul-canonical-0000000082	달방동	37.50198	129.01498	noisy	CN	Hangul	canonical	node	415154291	달방동
cn-hangul-canonical-0000000083	백전리	37.2613684	128.871905	noisy	CN	Hangul	canonical	node	415154345	백전리
cn-hangul-canonical-0000000084	광격리	37.4577188	127.9403702	noisy	CN	Hangul	canonical	node	415154630	광격리
cn-hangul-canonical-0000000085	이호리	37.28652	127.69296000000001	noisy	CN	Hangul	canonical	node	415154814	이호리
cn-hangul-canonical-0000000086	유정리	37.289010000000005	127.32090000000001	noisy	CN	Hangul	canonical	node	415155024	유정리
cn-hangul-canonical-0000000087	건업리	37.393620000000006	127.39862000000001	noisy	CN	Hangul	canonical	node	415155078	건업리
cn-hangul-canonical-0000000088	우면동	37.464754500000005	127.01886660000001	noisy	CN	Hangul	canonical	node	415155276	우면동
cn-hangul-canonical-0000000089	임곡리	37.00511	128.65353000000002	noisy	CN	Hangul	canonical	node	415155491	임곡리
cn-hangul-canonical-0000000090	흑석동	37.143503100000004	128.2493249	noisy	CN	Hangul	canonical	node	415155667	흑석동
cn-hangul-canonical-0000000091	교리	37.0147865	128.1907195	noisy	CN	Hangul	canonical	node	415155702	교리
cn-hangul-canonical-0000000092	수룡리	37.0504212	127.80347540000001	noisy	CN	Hangul	canonical	node	415155711	수룡리
cn-hangul-canonical-0000000093	대정리	37.0269914	127.52120980000001	noisy	CN	Hangul	canonical	node	415155787	대정리
cn-hangul-canonical-0000000094	구시리	37.20516	127.50374000000001	noisy	CN	Hangul	canonical	node	415155864	구시리
cn-hangul-canonical-0000000095	대갈리	37.06888	127.25292	noisy	CN	Hangul	canonical	node	415155997	대갈리
cn-hangul-canonical-0000000096	옥산리	37.106840000000005	127.40573	noisy	CN	Hangul	canonical	node	415156040	옥산리
cn-hangul-canonical-0000000097	호곡리	37.12091	126.78152000000001	noisy	CN	Hangul	canonical	node	415156293	호곡리
cn-hangul-canonical-0000000098	송동	37.160720000000005	127.09296	noisy	CN	Hangul	canonical	node	415156397	송동
cn-hangul-canonical-0000000099	영천동	37.210328100000005	127.10583430000001	noisy	CN	Hangul	canonical	node	415156448	영천동
cn-hangul-canonical-0000000100	고수리	36.987384000000006	128.3835119	noisy	CN	Hangul	canonical	node	415156826	고수리
cn-hangul-canonical-0000000101	금곡리	36.957266600000004	127.8175659	noisy	CN	Hangul	canonical	node	415157117	금곡리
cn-hangul-canonical-0000000102	갈금리	36.7805411	127.95264150000001	noisy	CN	Hangul	canonical	node	415157180	갈금리
cn-hangul-canonical-0000000103	중산리	36.904054200000004	127.44535610000001	noisy	CN	Hangul	canonical	node	415157756	중산리
cn-hangul-canonical-0000000104	지경리	36.55344	129.11413000000002	noisy	CN	Hangul	canonical	node	415158265	지경리
cn-hangul-canonical-0000000105	장산리	36.70785	128.5406	noisy	CN	Hangul	canonical	node	415158474	장산리
cn-hangul-canonical-0000000106	북문동	36.5643797	128.72379660000001	noisy	CN	Hangul	canonical	node	415158517	북문동
cn-hangul-canonical-0000000107	상월리	36.582	128.3793	noisy	CN	Hangul	canonical	node	415158652	상월리
cn-hangul-canonical-0000000108	구계리	36.684740000000005	128.38728	noisy	CN	Hangul	canonical	node	415158743	구계리
cn-hangul-canonical-0000000109	윤직리	36.5775783	128.1966492	noisy	CN	Hangul	canonical	node	415158902	윤직리
cn-hangul-canonical-0000000110	상오리	36.5334537	127.91376070000001	noisy	CN	Hangul	canonical	node	415158960	상오리
cn-hangul-canonical-0000000111	금평리	36.6795838	127.74816310000001	noisy	CN	Hangul	canonical	node	415159210	금평리
cn-hangul-canonical-0000000112	노화리	36.653890000000004	126.76620000000001	noisy	CN	Hangul	canonical	node	415159890	노화리
cn-hangul-canonical-0000000113	조곡리	36.72938	126.79103	noisy	CN	Hangul	canonical	node	415159914	조곡리
cn-hangul-canonical-0000000114	고당리	36.5222041	127.02498290000001	noisy	CN	Hangul	canonical	node	415159995	고당리
cn-hangul-canonical-0000000115	동교리	36.680828500000004	127.209175	noisy	CN	Hangul	canonical	node	415160088	동교리
cn-hangul-canonical-0000000116	하저리	36.40129	129.40077	noisy	CN	Hangul	canonical	node	415160160	하저리
cn-hangul-canonical-0000000117	구천리	36.30411	129.11221	noisy	CN	Hangul	canonical	node	415160224	구천리
cn-hangul-canonical-0000000118	구암리	36.363310000000006	128.76704	noisy	CN	Hangul	canonical	node	415160353	구암리
cn-hangul-canonical-0000000119	덕지리	36.48057	128.34312	noisy	CN	Hangul	canonical	node	415160576	덕지리
cn-hangul-canonical-0000000120	용포리	36.324130000000004	128.19145	noisy	CN	Hangul	canonical	node	415160754	용포리
cn-hangul-canonical-0000000121	산척리	36.487977400000005	127.6611615	noisy	CN	Hangul	canonical	node	415161065	산척리
cn-hangul-canonical-0000000122	수촌리	36.5113685	127.1334875	noisy	CN	Hangul	canonical	node	415161912	수촌리
cn-hangul-canonical-0000000123	무릉동	36.4607438	127.17332750000001	noisy	CN	Hangul	canonical	node	415161934	무릉동
cn-hangul-canonical-0000000124	반계리	36.03013	128.43635	noisy	CN	Hangul	canonical	node	415162541	반계리
cn-hangul-canonical-0000000125	평화동	36.126107000000005	128.1111749	noisy	CN	Hangul	canonical	node	415162582	평화동
cn-hangul-canonical-0000000126	도명리	36.2121354	128.1313771	noisy	CN	Hangul	canonical	node	415162650	도명리
cn-hangul-canonical-0000000127	아암리	36.073032500000004	127.69411790000001	noisy	CN	Hangul	canonical	node	415162890	아암리
cn-hangul-canonical-0000000128	송학리	36.225210000000004	126.79907000000001	noisy	CN	Hangul	canonical	node	415163193	송학리
cn-hangul-canonical-0000000129	망성면	36.118984000000005	127.03619810000001	noisy	CN	Hangul	canonical	node	415163359	망성면
cn-hangul-canonical-0000000130	금천리	35.143550000000005	127.64083000000001	noisy	CN	Hangul	canonical	node	415164219	금천리
cn-hangul-canonical-0000000131	이호이동	33.498551	126.4565213	noisy	CN	Hangul	canonical	node	415164586	이호이동
cn-hangul-canonical-0000000132	죽촌리	34.99103	126.76871000000001	noisy	CN	Hangul	canonical	node	415164691	죽촌리
cn-hangul-canonical-0000000133	덕치리	34.970580000000005	127.19863000000001	noisy	CN	Hangul	canonical	node	415164952	덕치리
cn-hangul-canonical-0000000134	안좌면	34.7359449	126.13462670000001	noisy	CN	Hangul	canonical	node	415165023	안좌면
cn-hangul-canonical-0000000135	황산면	34.570620000000005	126.43976	noisy	CN	Hangul	canonical	node	415165144	황산면
cn-hangul-canonical-0000000136	덕년리	34.61665	126.69983	noisy	CN	Hangul	canonical	node	415165358	덕년리
cn-hangul-canonical-0000000137	금사리	34.61195	126.82083	noisy	CN	Hangul	canonical	node	415165523	금사리
cn-hangul-canonical-0000000138	운흥리	34.65335	126.98653	noisy	CN	Hangul	canonical	node	415165642	운흥리
cn-hangul-canonical-0000000139	동율리	34.687870000000004	127.09339000000001	noisy	CN	Hangul	canonical	node	415165683	동율리
cn-hangul-canonical-0000000140	도덕리	34.54943	127.16821	noisy	CN	Hangul	canonical	node	415165692	도덕리
cn-hangul-canonical-0000000141	외초리	34.4224	127.49113000000001	noisy	CN	Hangul	canonical	node	415165982	외초리
cn-hangul-canonical-0000000142	수인리	34.47175	126.808	noisy	CN	Hangul	canonical	node	415166004	수인리
cn-hangul-canonical-0000000143	삼산면	34.108470000000004	127.30342	noisy	CN	Hangul	canonical	node	415166084	삼산면
cn-hangul-canonical-0000000144	학야리	35.017250000000004	126.52523000000001	noisy	CN	Hangul	canonical	node	415166115	학야리
cn-hangul-canonical-0000000145	장동리	35.07038	126.74088	noisy	CN	Hangul	canonical	node	415166261	장동리
cn-hangul-canonical-0000000146	덕동마을	35.3646047	127.5584527	noisy	CN	Hangul	canonical	node	1070453231	덕동마을
cn-hangul-canonical-0000000147	국회의사당, 국회대로 지하758, 서울특별시 07236	37.528015700000005	126.9179639	clean	CN	Hangul	canonical	node	1849176201	국회의사당
cn-hangul-canonical-0000000148	성은교회, 남부순환로391길 25, 서울특별시 06280	37.493548100000005	127.0565636	clean	CN	Hangul	canonical	node	1925380618	성은교회
cn-hangul-canonical-0000000149	이정미헤어, 성오로124번길 37, 부천시	37.524779900000006	126.8019074	noisy	CN	Hangul	canonical	node	2505507423	이정미헤어
cn-hangul-canonical-0000000150	청심교회, 성오로124번길 47, 부천시	37.5250458	126.8022114	noisy	CN	Hangul	canonical	node	2505507426	청심교회
cn-hangul-canonical-0000000151	철원군	38.146802300000004	127.31330000000001	noisy	CN	Hangul	canonical	node	2800319514	철원군
cn-hangul-canonical-0000000152	신길, 영등포로 327, 서울특별시 07319	37.5164582	126.9196723	clean	CN	Hangul	canonical	node	3213703909	신길
cn-hangul-canonical-0000000153	백마마을	37.6558846	126.7900666	noisy	CN	Hangul	canonical	node	3830221602	백마마을
cn-hangul-canonical-0000000154	원더브라, 홍익로 13, 서울특별시 04040	37.5536297	126.92310760000001	clean	CN	Hangul	canonical	node	4174097259	원더브라
cn-hangul-canonical-0000000155	파라다이스 호텔 부산, 해운대해변로 (Haeundaehaebyeonno) 296	35.1602041	129.1652071	noisy	CN	Hangul	canonical	node	4199814292	파라다이스 호텔 부산
cn-hangul-canonical-0000000156	동강의 아침, 강원도 영월군 영월읍 삼옥리 1646-6	37.1920975	128.5024808	noisy	CN	Hangul	canonical	node	4285654696	동강의 아침
cn-hangul-canonical-0000000157	코러스센터, 공항대로38길 71, 서울특별시 07646	37.557214200000004	126.84152920000001	clean	CN	Hangul	canonical	node	4312130291	코러스센터
cn-hangul-canonical-0000000158	백령농협, 인천광역시 옹진군 백령면 백령로 261	37.9702592	124.71853420000001	noisy	CN	Hangul	canonical	node	4326510202	백령농협
cn-hangul-canonical-0000000159	맑은샘경희한의원, 동판교로 59, 성남시 13533	37.388350200000005	127.11509260000001	clean	CN	Hangul	canonical	node	4357349353	맑은샘경희한의원
cn-hangul-canonical-0000000160	꽃돼지원조국밥, 북항로166번길 5, 목포시 58715	34.8037538	126.3678067	clean	CN	Hangul	canonical	node	4499868346	꽃돼지원조국밥
cn-hangul-canonical-0000000161	광주세무서, 중앙로 154,  61484	35.147737500000005	126.9131224	noisy	CN	Hangul	canonical	node	4505802579	광주세무서
kr-hangul-canonical-0000000162	께딸 (Que Tal), 인천광역시	37.495011000000005	126.72329180000001	noisy	KR	Hangul	canonical	node	4542470815	께딸 (Que Tal)
cn-hangul-canonical-0000000163	덕산1차 아파트, 진목1길 6, 거제시	34.898155200000005	128.6855346	noisy	CN	Hangul	canonical	node	4592022685	덕산1차 아파트
cn-hangul-canonical-0000000164	상림교회, 척동9길 5, 전주시 54961	35.8246802	127.09917730000001	clean	CN	Hangul	canonical	node	4628994799	상림교회
cn-hangul-canonical-0000000165	웃는얼굴 아트센터, 대구광역시	35.8430522	128.52267740000002	noisy	CN	Hangul	canonical	node	4631574387	웃는얼굴 아트센터
cn-hangul-canonical-0000000166	성광슈퍼, 호국로 1123번길 32, 의정부시	37.7442149	127.02837350000001	noisy	CN	Hangul	canonical	node	4632032830	성광슈퍼
cn-hangul-canonical-0000000167	사천소방서 사천읍119안전센터, 사천시 사천읍 수석리 126, 사천시 52516	35.0876181	128.0887209	clean	CN	Hangul	canonical	node	4633869109	사천소방서 사천읍119안전센터
cn-hangul-canonical-0000000168	울릉읍사무소, 도동길 158, 울릉군 40221	37.485000500000005	130.9036713	clean	CN	Hangul	canonical	node	4633924715	울릉읍사무소
cn-hangul-canonical-0000000169	서부1동 행정복지센터, 경산로 135,  38678	35.820551300000005	128.72788680000002	noisy	CN	Hangul	canonical	node	4634849219	서부1동 행정복지센터
cn-hangul-canonical-0000000170	현대어린이집, 강변로 160, 평택시 17928	36.980838600000006	126.94960540000001	clean	CN	Hangul	canonical	node	4637911420	현대어린이집
cn-hangul-canonical-0000000171	춘천 달갈비, 평화로 , 양주시	37.8186126	127.0457765	noisy	CN	Hangul	canonical	node	4638679371	춘천 달갈비
cn-hangul-canonical-0000000172	책마루도서관, 심중로 121 , 부천시 14609	37.4939551	126.77013260000001	noisy	CN	Hangul	canonical	node	4639566503	책마루도서관
cn-hangul-canonical-0000000173	산장가든, 평화로 , 양주시	37.828617	127.03282600000001	noisy	CN	Hangul	canonical	node	4640853519	산장가든
cn-hangul-canonical-0000000174	더퍼스트프라임아파트	37.6879445	126.86592680000001	noisy	CN	Hangul	canonical	node	4641593174	더퍼스트프라임아파트
cn-hangul-canonical-0000000175	양미혜산부인과, 오목로 , 서울특별시	37.5257633	126.86266830000001	noisy	CN	Hangul	canonical	node	4646751985	양미혜산부인과
cn-hangul-canonical-0000000176	예일홈타운, 갈현로 129, 서울특별시 03429	37.6096209	126.9107639	clean	CN	Hangul	canonical	node	4648520144	예일홈타운
cn-hangul-canonical-0000000177	아파트 조형물, 제주시	33.5004111	126.5208276	noisy	CN	Hangul	canonical	node	4654632866	아파트 조형물
cn-hangul-canonical-0000000178	CU 진접예당점, 해밀예당1로 297, 남양주시 12052	37.725403	127.20842950000001	clean	CN	Hangul	canonical	node	4660174409	CU 진접예당점
cn-hangul-canonical-0000000179	준 이비인후과, 연서로 137, 서울특별시 03412	37.611096800000006	126.91682100000001	clean	CN	Hangul	canonical	node	4660773342	준 이비인후과
cn-hangul-canonical-0000000180	오성장여관, 옥수로 14-1, 거제시	34.8754058	128.72998710000002	noisy	CN	Hangul	canonical	node	4680089427	오성장여관
cn-hangul-canonical-0000000181	논곡동	37.394341000000004	126.85774570000001	noisy	CN	Hangul	canonical	node	4705475427	논곡동
cn-hangul-canonical-0000000182	음주가무, 부천로29번길 35	37.487162600000005	126.7814402	noisy	CN	Hangul	canonical	node	4712264189	음주가무
cn-hangul-canonical-0000000183	돔호텔, 거제대로 2372, 거제시	34.8224437	128.70982080000002	noisy	CN	Hangul	canonical	node	4714743337	돔호텔
cn-hangul-canonical-0000000184	부산대원어묵, 망원로8길 26, 서울특별시 04010	37.5563024	126.90607200000001	clean	CN	Hangul	canonical	node	4715316374	부산대원어묵
cn-hangul-canonical-0000000185	맛깔찜, 상동5길 8, 거제시	34.8689108	128.6363327	noisy	CN	Hangul	canonical	node	4716452026	맛깔찜
cn-hangul-canonical-0000000186	반여3동 행정복지센터, 재반로256번길 29-70, 부산광역시 48025	35.201081900000005	129.133483	clean	CN	Hangul	canonical	node	4724202733	반여3동 행정복지센터
cn-hangul-canonical-0000000187	웹젠, 판교로 242, 성남시 13487	37.402547500000004	127.1018499	clean	CN	Hangul	canonical	node	4742621852	웹젠
cn-hangul-canonical-0000000188	평리4동	35.8677943	128.5580759	noisy	CN	Hangul	canonical	node	4838573565	평리4동
cn-hangul-canonical-0000000189	세광마트, 늘푸른1길 45, 천안시 31099	36.8290024	127.12810520000001	clean	CN	Hangul	canonical	node	4855680401	세광마트
cn-hangul-canonical-0000000190	세븐일레븐, 서전로 10, 부산광역시	35.1575742	129.06077810000002	noisy	CN	Hangul	canonical	node	4877424321	세븐일레븐
cn-hangul-canonical-0000000191	남현동	37.471547900000004	126.97649340000001	noisy	CN	Hangul	canonical	node	4881890764	남현동
cn-hangul-canonical-0000000192	신용보증기금 부산지점, 중앙대로 668, 부산광역시	35.1522931	129.05973070000002	noisy	CN	Hangul	canonical	node	5104415138	신용보증기금 부산지점
cn-hangul-canonical-0000000193	오복 즉석떡볶이, 독막로31길 18, 서울특별시 04096	37.5478423	126.93957820000001	clean	CN	Hangul	canonical	node	5176344099	오복 즉석떡볶이
cn-hangul-canonical-0000000194	중남해 중화요리, 대영로243번길 27	35.113481400000005	129.03769780000002	noisy	CN	Hangul	canonical	node	5244297721	중남해 중화요리
cn-hangul-canonical-0000000195	감포읍 행정복지센터, 감포로8길 14-8, 경주시 38125	35.807432000000006	129.5016003	clean	CN	Hangul	canonical	node	5348669361	감포읍 행정복지센터
cn-hangul-canonical-0000000196	버드나무 브루어리, 경강로 1961	37.748883	128.88509190000002	noisy	CN	Hangul	canonical	node	5413463123	버드나무 브루어리
cn-hangul-canonical-0000000197	고산서원, 고산로 68, 장성군	35.2728935	126.8413582	noisy	CN	Hangul	canonical	node	5416402756	고산서원
cn-hangul-canonical-0000000198	우리은행, 서울특별시	37.5199329	127.0523663	noisy	CN	Hangul	canonical	node	5503078425	우리은행
cn-hangul-canonical-0000000199	대평리마을회관, 대평감산로 43, 서귀포시 63533	33.2385709	126.36588210000001	clean	CN	Hangul	canonical	node	5546844469	대평리마을회관
cn-hangul-canonical-0000000200	버드나무집, 효령로 434, 서울특별시 06729	37.489098600000005	127.031276	clean	CN	Hangul	canonical	node	5563338122	버드나무집
cn-hangul-canonical-0000000201	한전아트센타, 효령로72길 60, 서울특별시 06732	37.485522700000004	127.02804350000001	clean	CN	Hangul	canonical	node	5585735223	한전아트센타
cn-hangul-canonical-0000000202	진미식당, 마포대로 186-6, 서울특별시 04207	37.550617	126.9557711	clean	CN	Hangul	canonical	node	5677283823	진미식당
kr-hangul-canonical-0000000203	빽다방, 서울특별시	37.486594000000004	126.83830370000001	noisy	KR	Hangul	canonical	node	5933310595	빽다방
cn-hangul-canonical-0000000204	아현, 신촌로 270, 서울특별시 04116	37.5574309	126.9561209	clean	CN	Hangul	canonical	node	5937884698	아현
cn-hangul-canonical-0000000205	원통리	38.122936	128.2107695	noisy	CN	Hangul	canonical	node	6032001705	원통리
cn-hangul-canonical-0000000206	새절, 증산로 지하400, 서울특별시 03442	37.591649100000005	126.9137922	clean	CN	Hangul	canonical	node	6041674916	새절
cn-hangul-canonical-0000000207	7번가 피자, 서초대로 347, 서울특별시 06607	37.4955592	127.0191434	clean	CN	Hangul	canonical	node	6423832728	7번가 피자
cn-hangul-canonical-0000000208	지인시스템, 송파대로 167, 서울특별시 05855	37.4849838	127.12226290000001	clean	CN	Hangul	canonical	node	6592886378	지인시스템
cn-hangul-canonical-0000000209	장미약국, 서신로 109, 전주시 54944	35.8350926	127.11568170000001	clean	CN	Hangul	canonical	node	6621456982	장미약국
cn-hangul-canonical-0000000210	커피포션, 천변우하로 509	35.170597900000004	126.87497210000001	noisy	CN	Hangul	canonical	node	6709348510	커피포션
cn-hangul-canonical-0000000211	Cafe 닻별, 금능길 89, 제주시 63010	33.3892341	126.2323685	clean	CN	Hangul	canonical	node	6711414985	Cafe 닻별
cn-hangul-canonical-0000000212	헤지스골프 광주아울렛점, 상무대로 627	35.1409736	126.832946	noisy	CN	Hangul	canonical	node	6715792506	헤지스골프 광주아울렛점
cn-hangul-canonical-0000000213	쌀통닭, 새천년대로1249번길 10-10, 포항시 37585	36.0752971	129.38369350000002	clean	CN	Hangul	canonical	node	6986942162	쌀통닭
cn-hangul-canonical-0000000214	CU 제주섭지코지점, 신양로 114, 서귀포시 63641	33.436447	126.92176970000001	clean	CN	Hangul	canonical	node	7558329294	CU 제주섭지코지점
kr-hangul-canonical-0000000215	비비하우스, 서울특별시	37.500750700000005	126.9296743	noisy	KR	Hangul	canonical	node	7559560385	비비하우스
cn-hangul-canonical-0000000216	오룡리	34.8035196	126.48121560000001	noisy	CN	Hangul	canonical	node	7711196103	오룡리
cn-hangul-canonical-0000000217	한보라마을	37.246157000000004	127.10834290000001	noisy	CN	Hangul	canonical	node	7774581222	한보라마을
cn-hangul-canonical-0000000218	종로5·6가동 주민센터, 종로35가길 19, 서울특별시 03126	37.572037800000004	127.0050662	clean	CN	Hangul	canonical	node	7808597954	종로5·6가동 주민센터
cn-hangul-canonical-0000000219	가흥1동 행정복지센터, 대동로13번길 9, 영주시 36137	36.816006	128.60345	clean	CN	Hangul	canonical	node	7831789882	가흥1동 행정복지센터
cn-hangul-canonical-0000000220	소보면 사무소, 송백로 1415, 대구광역시 43102	36.2548763	128.4753231	clean	CN	Hangul	canonical	node	7833712401	소보면 사무소
cn-hangul-canonical-0000000221	봉산면사무소, 김봉길 17, 합천군 50211	35.626147	128.0418275	clean	CN	Hangul	canonical	node	7841978695	봉산면사무소
cn-hangul-canonical-0000000222	노화읍사무소, 노화로 813, 완도군 59157	34.177875300000004	126.57577990000001	clean	CN	Hangul	canonical	node	7849148345	노화읍사무소
cn-hangul-canonical-0000000223	청소면사무소, 청소큰길 167, 보령시 33418	36.446699100000004	126.5889008	clean	CN	Hangul	canonical	node	7858265878	청소면사무소
cn-hangul-canonical-0000000224	순성면 행정복지센터, 남부로 1146, 당진시 31757	36.843892600000004	126.713288	clean	CN	Hangul	canonical	node	7860001575	순성면 행정복지센터
cn-hangul-canonical-0000000225	양구읍사무소, 관공서로 18, 양구군 24523	38.1081026	127.99058570000001	clean	CN	Hangul	canonical	node	7866835334	양구읍사무소
cn-hangul-canonical-0000000226	구월4동 행정복지센터, 구월말로 7, 인천광역시 21536	37.4496374	126.724074	clean	CN	Hangul	canonical	node	7874931355	구월4동 행정복지센터
cn-hangul-canonical-0000000227	서울장미아파트우편취급국, 신천로 25, 서울특별시 05504	37.5172779	127.1007986	clean	CN	Hangul	canonical	node	7946481054	서울장미아파트우편취급국
cn-hangul-canonical-0000000228	서울이엠연구소 남양주공장, 경복대로 505-1, 남양주시 12021	37.740791200000004	127.21476140000001	clean	CN	Hangul	canonical	node	8107811097	서울이엠연구소 남양주공장
cn-hangul-canonical-0000000229	한국엘다크, 진벌로119번길 48-74, 남양주시 12021	37.7463193	127.22200790000001	clean	CN	Hangul	canonical	node	8114431130	한국엘다크
cn-hangul-canonical-0000000230	하나은행, 백옥대로 1112, 용인시 17051	37.2349039	127.2092226	clean	CN	Hangul	canonical	node	8120963653	하나은행
cn-hangul-canonical-0000000231	영철버거, 안암로9가길 100, 서울특별시 02855	37.5832246	127.02879170000001	clean	CN	Hangul	canonical	node	8146493948	영철버거
cn-hangul-canonical-0000000232	원주시시설관리공단, 소방서길 27	37.3290233	127.9450779	noisy	CN	Hangul	canonical	node	8282701419	원주시시설관리공단
cn-hangul-canonical-0000000233	카센터, 중봉로	37.625610900000005	126.6962429	noisy	CN	Hangul	canonical	node	8407544817	카센터
cn-hangul-canonical-0000000234	오대양참치, 광덕대로 168	37.311205	126.83077600000001	noisy	CN	Hangul	canonical	node	8440212309	오대양참치
cn-hangul-canonical-0000000235	구에스티케이733, 이태원로27길 101, 서울특별시 04349	37.5376917	126.99490820000001	clean	CN	Hangul	canonical	node	8441111204	구에스티케이733
cn-hangul-canonical-0000000236	라자트, 녹사평대로32길 15, 서울특별시 04390	37.5336707	126.9896997	clean	CN	Hangul	canonical	node	8441122203	라자트
cn-hangul-canonical-0000000237	맷크로켓, 녹사평대로54길 16, 서울특별시 04343	37.5391379	126.98810130000001	clean	CN	Hangul	canonical	node	8441122519	맷크로켓
cn-hangul-canonical-0000000238	알리바바, 이태원로 203, 서울특별시 04349	37.534820800000006	126.9966193	clean	CN	Hangul	canonical	node	8441122535	알리바바
cn-hangul-canonical-0000000239	설화, 중앙로48번길 17-1, 서귀포시 63591	33.2493867	126.5635816	clean	CN	Hangul	canonical	node	8441472906	설화
cn-hangul-canonical-0000000240	아쿠아비치식당, 일주동로 4258, 서귀포시 63640	33.4483373	126.9119979	clean	CN	Hangul	canonical	node	8441476406	아쿠아비치식당
cn-hangul-canonical-0000000241	새마을주점, 표선동서로 230, 서귀포시 63629	33.3244236	126.83235660000001	clean	CN	Hangul	canonical	node	8441486758	새마을주점
cn-hangul-canonical-0000000242	하와이카이, 최남단해안로125번길 5, 서귀포시 63513	33.202322	126.2807839	clean	CN	Hangul	canonical	node	8441486838	하와이카이
cn-hangul-canonical-0000000243	장가네해장국, 중문상로17번길 4, 서귀포시 63546	33.250508700000005	126.42407270000001	clean	CN	Hangul	canonical	node	8441486895	장가네해장국
cn-hangul-canonical-0000000244	빨간고추, 중앙로48번길 42-1, 서귀포시 63590	33.2502481	126.5659243	clean	CN	Hangul	canonical	node	8441487757	빨간고추
cn-hangul-canonical-0000000245	키친수복, 환해장성로 129-1, 서귀포시 63634	33.3833866	126.880892	clean	CN	Hangul	canonical	node	8441487772	키친수복
cn-hangul-canonical-0000000246	본가신촌설렁탕제주, 중앙로 161, 서귀포시 63584	33.2590981	126.5591449	clean	CN	Hangul	canonical	node	8441489700	본가신촌설렁탕제주
cn-hangul-canonical-0000000247	올블루, 태평로 449, 서귀포시 63595	33.247221700000004	126.56752770000001	clean	CN	Hangul	canonical	node	8441491176	올블루
cn-hangul-canonical-0000000248	꼬끼오옛날통닭, 신영로 112, 서귀포시 63510	33.2217854	126.2542758	clean	CN	Hangul	canonical	node	8441491280	꼬끼오옛날통닭
cn-hangul-canonical-0000000249	꺼멍목장, 이어도로 338, 서귀포시 63542	33.242829900000004	126.45542080000001	clean	CN	Hangul	canonical	node	8441491541	꺼멍목장
cn-hangul-canonical-0000000250	육떡식당, 천제연로178번길 19, 서귀포시 63546	33.2502295	126.4237499	clean	CN	Hangul	canonical	node	8441491566	육떡식당
cn-hangul-canonical-0000000251	소가넘어간다, 중산간서로 2576, 서귀포시 63516	33.2680232	126.2586275	clean	CN	Hangul	canonical	node	8441491669	소가넘어간다
cn-hangul-canonical-0000000252	주연분식, 흙담솔로 15, 서귀포시 63584	33.260205	126.55527310000001	clean	CN	Hangul	canonical	node	8441491670	주연분식
cn-hangul-canonical-0000000253	플레이커피랩, 서문로28번길 2, 서귀포시 63593	33.2506077	126.55669920000001	clean	CN	Hangul	canonical	node	8441491857	플레이커피랩
cn-hangul-canonical-0000000254	제주궁전, 일주동로 8924, 서귀포시 63569	33.2527276	126.53728720000001	clean	CN	Hangul	canonical	node	8441492658	제주궁전
cn-hangul-canonical-0000000255	성산포바당, 성산중앙로 70-2, 서귀포시 63643	33.465218400000005	126.93535580000001	clean	CN	Hangul	canonical	node	8441492699	성산포바당
cn-hangul-canonical-0000000256	맨도롱해장국, 태평로353번길 11, 서귀포시 63592	33.247047800000004	126.5600864	clean	CN	Hangul	canonical	node	8441492710	맨도롱해장국
cn-hangul-canonical-0000000257	신토불이, 서삼중로 94, 서귀포시 63501	33.2711473	126.20253410000001	clean	CN	Hangul	canonical	node	8441492994	신토불이
cn-hangul-canonical-0000000258	정원집대구뽈찜, 태위로679번길 9, 서귀포시 63621	33.2799494	126.7188548	clean	CN	Hangul	canonical	node	8441493554	정원집대구뽈찜
cn-hangul-canonical-0000000259	신양귀비, 중정로61번길 24, 서귀포시 63591	33.2499796	126.56271860000001	clean	CN	Hangul	canonical	node	8441494395	신양귀비
cn-hangul-canonical-0000000260	시민을위한갈비, 동홍로 10, 서귀포시 63590	33.249276200000004	126.56792360000001	clean	CN	Hangul	canonical	node	8441494532	시민을위한갈비
cn-hangul-canonical-0000000261	제주올레, 칠십리로 45, 서귀포시 63596	33.240843500000004	126.56172420000001	clean	CN	Hangul	canonical	node	8441958294	제주올레
cn-hangul-canonical-0000000262	브런치더썸, 일주동로 8921, 서귀포시 63571	33.252203300000005	126.5379206	clean	CN	Hangul	canonical	node	8441981364	브런치더썸
cn-hangul-canonical-0000000263	제주인화찐빵, 동홍로 19, 서귀포시 63590	33.250438100000004	126.5676971	clean	CN	Hangul	canonical	node	8442079498	제주인화찐빵
cn-hangul-canonical-0000000264	스위트브라운, 사계남로216번길 24-61, 서귀포시 63528	33.2350833	126.31367050000001	clean	CN	Hangul	canonical	node	8442079688	스위트브라운
cn-hangul-canonical-0000000265	카페 서연의집, 위미해안로 86, 서귀포시 63611	33.2694372	126.65566260000001	clean	CN	Hangul	canonical	node	8442079938	카페 서연의집
cn-hangul-canonical-0000000266	브릭공장, 성산등용로 130-21, 서귀포시 63643	33.4728836	126.9342256	clean	CN	Hangul	canonical	node	8442133170	브릭공장
cn-hangul-canonical-0000000267	제창약국, 정릉로27길 41, 서울특별시	37.605728400000004	127.0134857	noisy	CN	Hangul	canonical	node	8448897085	제창약국
cn-hangul-canonical-0000000268	육층약국, 동소문로 106, 서울특별시 02845	37.5925735	127.01708860000001	clean	CN	Hangul	canonical	node	8448937803	육층약국
cn-hangul-canonical-0000000269	한솔약국, 동소문로 57-1, 서울특별시 02832	37.591413700000004	127.0118934	clean	CN	Hangul	canonical	node	8448940645	한솔약국
cn-hangul-canonical-0000000270	한국약국, 서달로163번길 9	37.513063700000004	126.67790110000001	noisy	CN	Hangul	canonical	node	8448988182	한국약국
cn-hangul-canonical-0000000271	해아추어탕, 호수로 70	35.0133066	126.7902377	noisy	CN	Hangul	canonical	node	8515603866	해아추어탕
cn-hangul-canonical-0000000272	드들강, 국성물길 18-1, 나주시 58229	35.0353897	126.85135170000001	clean	CN	Hangul	canonical	node	8515603916	드들강
cn-hangul-canonical-0000000273	대박집, 개포로62번길 9-10, 완도군	34.3172707	126.7456997	noisy	CN	Hangul	canonical	node	8515673209	대박집
cn-hangul-canonical-0000000274	지리산초원흑돈, 관산구산길 1, 구례군	35.318921800000005	127.46058730000001	noisy	CN	Hangul	canonical	node	8515686944	지리산초원흑돈
cn-hangul-canonical-0000000275	밀터해물칼국수, 금성산성길 62, 담양군	35.354119100000005	127.0292874	noisy	CN	Hangul	canonical	node	8515702382	밀터해물칼국수
cn-hangul-canonical-0000000276	썬 방앗간 떡볶이, 상야1길 21	35.0226557	126.78803610000001	noisy	CN	Hangul	canonical	node	8515703209	썬 방앗간 떡볶이
cn-hangul-canonical-0000000277	남원추어탕, 남산로 163	34.9411937	127.50587060000001	noisy	CN	Hangul	canonical	node	8515707206	남원추어탕
cn-hangul-canonical-0000000278	신일회관, 청운길 54, 장성군	35.3045404	126.78199260000001	noisy	CN	Hangul	canonical	node	8515707796	신일회관
cn-hangul-canonical-0000000279	보성녹돈갈비, 조정래길 141-12, 보성군	34.852670100000005	127.33631070000001	noisy	CN	Hangul	canonical	node	8515710368	보성녹돈갈비
cn-hangul-canonical-0000000280	한우광장, 천년로11길 18, 영광군	35.2738663	126.5005881	noisy	CN	Hangul	canonical	node	8515710578	한우광장
cn-hangul-canonical-0000000281	만선횟집, 천년로10길 41, 영광군	35.275421900000005	126.49792830000001	noisy	CN	Hangul	canonical	node	8515710581	만선횟집
cn-hangul-canonical-0000000282	오늘의바다굴비정식, 굴비로1길 10-1, 영광군	35.3622518	126.4429621	noisy	CN	Hangul	canonical	node	8515710687	오늘의바다굴비정식
cn-hangul-canonical-0000000283	모래골, 해안로 1389, 영광군	35.362940200000004	126.41515500000001	noisy	CN	Hangul	canonical	node	8515710699	모래골
cn-hangul-canonical-0000000284	와우한우명품관, 시청서1길 54-5	34.75764	127.6595281	noisy	CN	Hangul	canonical	node	8515710799	와우한우명품관
cn-hangul-canonical-0000000285	조은갈비, 선원3길 6-13	34.766023000000004	127.6554148	noisy	CN	Hangul	canonical	node	8515710813	조은갈비
cn-hangul-canonical-0000000286	강남아구찜 대구뽈테기, 장흥대로 3267, 장흥군	34.664713	126.88688110000001	noisy	CN	Hangul	canonical	node	8515711165	강남아구찜 대구뽈테기
cn-hangul-canonical-0000000287	진도리닭도리탕, 길호2길 7	34.93141	127.6969679	noisy	CN	Hangul	canonical	node	8515711364	진도리닭도리탕
cn-hangul-canonical-0000000288	남원식당, 지평로 547, 나주시 58307	34.9521402	126.7941586	clean	CN	Hangul	canonical	node	8515711927	남원식당
cn-hangul-canonical-0000000289	평화식당, 인동길 3, 고흥군	34.9371517	126.56464430000001	noisy	CN	Hangul	canonical	node	8515711928	평화식당
cn-hangul-canonical-0000000290	나진국밥, 장성5길 11	34.7540573	127.65521880000001	noisy	CN	Hangul	canonical	node	8515712236	나진국밥
cn-hangul-canonical-0000000291	홍가네갈비탕, 개포로114번길 43-5, 완도군	34.3186583	126.74600000000001	noisy	CN	Hangul	canonical	node	8515712553	홍가네갈비탕
cn-hangul-canonical-0000000292	백운목장, 동광1길 6	34.940116	127.7006108	noisy	CN	Hangul	canonical	node	8515712717	백운목장
cn-hangul-canonical-0000000293	샤인동물메디컬센터, 송파대로 4450, 서울특별시 05625	37.506824800000004	127.106148	clean	CN	Hangul	canonical	node	8681871918	샤인동물메디컬센터
cn-hangul-canonical-0000000294	신길, 경인로 지하9, 서울특별시	37.5175077	126.9163515	noisy	CN	Hangul	canonical	node	8829295765	신길
cn-hangul-canonical-0000000295	부자텐동(하남점), 미사대로 550,  12925	37.557412	127.20640650000001	noisy	CN	Hangul	canonical	node	9092905292	부자텐동(하남점)
cn-hangul-canonical-0000000296	굽네치킨(광탄점), 혜음로 1122, 파주시 10948	37.7816993	126.84748270000001	clean	CN	Hangul	canonical	node	9092945493	굽네치킨(광탄점)
cn-hangul-canonical-0000000297	리얼국수, 쇠재안길 24-6,  10934	37.752244100000006	126.7793482	noisy	CN	Hangul	canonical	node	9092945505	리얼국수
cn-hangul-canonical-0000000298	차돌풍, 양평시장길17번길 10, 양평군 12556	37.4898023	127.4911428	clean	CN	Hangul	canonical	node	9092951645	차돌풍
cn-hangul-canonical-0000000299	청년다방양평점, 양평시장길 10-1, 양평군 12556	37.4901509	127.49237180000002	clean	CN	Hangul	canonical	node	9092951651	청년다방양평점
cn-hangul-canonical-0000000300	투파인드피터고잔점, 광덕2로 186-9,  15477	37.308745200000004	126.8312236	noisy	CN	Hangul	canonical	node	9092966803	투파인드피터고잔점
cn-hangul-canonical-0000000301	삼삼오오포차, 큰솔로 59-1,  15051	37.3427604	126.75389290000001	noisy	CN	Hangul	canonical	node	9092966809	삼삼오오포차
cn-hangul-canonical-0000000302	파로호매운탕, 아차산로 415-1,  11954	37.592170200000005	127.1309985	noisy	CN	Hangul	canonical	node	9092975302	파로호매운탕
cn-hangul-canonical-0000000303	백제장, 남한산성로780번길 3, 광주시 12700	37.4786318	127.1839216	clean	CN	Hangul	canonical	node	9092979680	백제장
cn-hangul-canonical-0000000304	산성대가, 남한산성로792번길 11-12, 광주시 12700	37.476683200000004	127.18194140000001	clean	CN	Hangul	canonical	node	9092979702	산성대가
cn-hangul-canonical-0000000305	탑동까스, 하탑로 52, 수원시 16610	37.2690898	126.9773966	clean	CN	Hangul	canonical	node	9092980882	탑동까스
cn-hangul-canonical-0000000306	청년다방, 평화로2261번길 9-6,  11356	37.8894291	127.05587000000001	noisy	CN	Hangul	canonical	node	9092988214	청년다방
cn-hangul-canonical-0000000307	범바위덕, 회안대로 1577, 광주시 12701	37.4733244	127.24667950000001	clean	CN	Hangul	canonical	node	9092993033	범바위덕
cn-hangul-canonical-0000000308	빕스의정부이마트점, 민락로 210,  11814	37.7428813	127.10241330000001	noisy	CN	Hangul	canonical	node	9092993137	빕스의정부이마트점
cn-hangul-canonical-0000000309	㈜한길상회, 다산순환로 50,  12248	37.6161867	127.15241230000001	noisy	CN	Hangul	canonical	node	9093001946	㈜한길상회
cn-hangul-canonical-0000000310	돌뚝배기, 벌말로147번길 49,  11946	37.589837700000004	127.14636940000001	noisy	CN	Hangul	canonical	node	9093001972	돌뚝배기
cn-hangul-canonical-0000000311	갈비하우스, 검배로 76,  11932	37.595580000000005	127.14663680000001	noisy	CN	Hangul	canonical	node	9093002136	갈비하우스
cn-hangul-canonical-0000000312	토평원조뼈다귀, 벌말로 194, 구리시 11945	37.593540100000006	127.1508596	clean	CN	Hangul	canonical	node	9093002140	토평원조뼈다귀
cn-hangul-canonical-0000000313	오장동함흥냉면경기점, 포은대로 536,  16896	37.3249901	127.1081774	noisy	CN	Hangul	canonical	node	9093002212	오장동함흥냉면경기점
cn-hangul-canonical-0000000314	고반식당용인보정점, 죽전로15번길 4-9,  16897	37.321036500000005	127.11065810000001	noisy	CN	Hangul	canonical	node	9093002213	고반식당용인보정점
cn-hangul-canonical-0000000315	의정부휴게소교동짬뽕, 구리포천고속도로 19,  11800	37.7329206	127.11510030000001	noisy	CN	Hangul	canonical	node	9093003652	의정부휴게소교동짬뽕
cn-hangul-canonical-0000000316	레드스토리, 외미로 90,  11638	37.7241043	127.0453784	noisy	CN	Hangul	canonical	node	9093003728	레드스토리
cn-hangul-canonical-0000000317	동보성, 권율로 57, 양주시 11520	37.7208569	126.9453385	clean	CN	Hangul	canonical	node	9093003844	동보성
cn-hangul-canonical-0000000318	(주)광릉불고기, 광릉내로82번길 40-1, 남양주시 12019	37.7450002	127.20795880000001	clean	CN	Hangul	canonical	node	9093003945	(주)광릉불고기
cn-hangul-canonical-0000000319	동경소나기, 고봉로 32-12,  10364	37.6643902	126.76577630000001	noisy	CN	Hangul	canonical	node	9093009025	동경소나기
cn-hangul-canonical-0000000320	쑝쑝돈까스 문산점, 문향로67번길 10, 파주시 10821	37.858233600000005	126.7846607	clean	CN	Hangul	canonical	node	9093009964	쑝쑝돈까스 문산점
cn-hangul-canonical-0000000321	주문진생선, 전주남이길 23-4,  16060	37.3507271	126.97712480000001	noisy	CN	Hangul	canonical	node	9093013573	주문진생선
cn-hangul-canonical-0000000322	족발신선생(은계점), 은계번영길 27,  14922	37.436537200000004	126.80395390000001	noisy	CN	Hangul	canonical	node	9093015855	족발신선생(은계점)
cn-hangul-canonical-0000000323	천지연용인아이씨점신화푸드(주), 백옥대로 1387,  17041	37.258986300000004	127.2121462	noisy	CN	Hangul	canonical	node	9093016011	천지연용인아이씨점신화푸드(주)
cn-hangul-canonical-0000000324	전남집, 석천로171번길 20, 안양시 13968	37.4133432	126.90782580000001	clean	CN	Hangul	canonical	node	9093017668	전남집
cn-hangul-canonical-0000000325	고기의정석, 오포로 380, 광주시 12774	37.341144500000006	127.1996967	clean	CN	Hangul	canonical	node	9093020783	고기의정석
cn-hangul-canonical-0000000326	이화수전통육개장오산시청점, 운천로 73,  18134	37.1492665	127.07427790000001	noisy	CN	Hangul	canonical	node	9093020949	이화수전통육개장오산시청점
cn-hangul-canonical-0000000327	스시노백쉐프 평택송탄점, 정암로 126-30,  17739	37.0544218	127.07040310000001	noisy	CN	Hangul	canonical	node	9093021319	스시노백쉐프 평택송탄점
cn-hangul-canonical-0000000328	본수원갈비 병점점, 병점중앙로211번길 35, 화성시 18391	37.213796	127.03298110000001	clean	CN	Hangul	canonical	node	9093022117	본수원갈비 병점점
cn-hangul-canonical-0000000329	능골, 번재길 331	37.365884	127.98098200000001	noisy	CN	Hangul	canonical	node	9295682739	능골
cn-hangul-canonical-0000000330	부영8단지, 혁신로 346-3	37.335937	127.98575600000001	noisy	CN	Hangul	canonical	node	9295709192	부영8단지
cn-hangul-canonical-0000000331	원주세무서, 모래내길 1-6	37.354078	127.935281	noisy	CN	Hangul	canonical	node	9295710152	원주세무서
cn-hangul-canonical-0000000332	캔디노래빠, 성남대로 30	37.3383863	127.10944730000001	noisy	CN	Hangul	canonical	node	9299781353	캔디노래빠
cn-hangul-canonical-0000000333	오렌지빵, 광명로 9	37.433206500000004	127.13017380000001	noisy	CN	Hangul	canonical	node	9299781534	오렌지빵
cn-hangul-canonical-0000000334	야호 노래빵, 수정로 137-1	37.4422263	127.1354718	noisy	CN	Hangul	canonical	node	9299781701	야호 노래빵
cn-hangul-canonical-0000000335	산성, 시민로175번길 8	37.443534500000005	127.1418984	noisy	CN	Hangul	canonical	node	9299781706	산성
cn-hangul-canonical-0000000336	로지네일, 성덕포남로 75	37.7609744	128.91740420000002	noisy	CN	Hangul	canonical	node	9308198628	로지네일
cn-hangul-canonical-0000000337	지니헤어, 하평3길 20	37.7710669	128.916609	noisy	CN	Hangul	canonical	node	9308198941	지니헤어
cn-hangul-canonical-0000000338	영남커텐, 중앙로 20, 고성군 52943	34.974242000000004	128.3224346	clean	CN	Hangul	canonical	node	9385620874	영남커텐
cn-hangul-canonical-0000000339	타다리섬	34.662300200000004	126.18837620000001	noisy	CN	Hangul	canonical	node	9430886817	타다리섬
cn-hangul-canonical-0000000340	보정리	35.256650300000004	127.12078950000001	noisy	CN	Hangul	canonical	node	9453098676	보정리
cn-hangul-canonical-0000000341	자연마을	35.2084551	126.89200930000001	noisy	CN	Hangul	canonical	node	9573137349	자연마을
cn-hangul-canonical-0000000342	예송미술관, 백제고분로 242, 서울특별시 05584	37.5020547	127.09327230000001	clean	CN	Hangul	canonical	node	9707530788	예송미술관
cn-hangul-canonical-0000000343	성용플라스틱, 경복대로534번길 24, 남양주시 12021	37.7410075	127.2188289	clean	CN	Hangul	canonical	node	9788609139	성용플라스틱
cn-hangul-canonical-0000000344	이레에프앤비코리아, 언주로147길 29, 서울특별시 06049	37.5193223	127.03190620000001	clean	CN	Hangul	canonical	node	9889570636	이레에프앤비코리아
cn-hangul-canonical-0000000345	명륜진사갈비, 양근로 67, 양평군	37.4978756	127.48210580000001	noisy	CN	Hangul	canonical	node	9953535239	명륜진사갈비
cn-hangul-canonical-0000000346	동산약국, 의병대로 86, 제천시	37.135999000000005	128.21050160000001	noisy	CN	Hangul	canonical	node	9975224159	동산약국
cn-hangul-canonical-0000000347	축복미용실, 용두천로 77-1, 제천시	37.1354581	128.2103956	noisy	CN	Hangul	canonical	node	9975224237	축복미용실
cn-hangul-canonical-0000000348	파크랜드 제천점, 의병대로 89, 제천시	37.1362593	128.2105943	noisy	CN	Hangul	canonical	node	9975224247	파크랜드 제천점
cn-hangul-canonical-0000000349	에이비씨스퀘어, 중랑천로 105, 서울특별시 02114	37.5945441	127.07211600000001	clean	CN	Hangul	canonical	node	10012945862	에이비씨스퀘어
cn-hangul-canonical-0000000350	전라도찬방, 봉우재로14길 28, 서울특별시 02131	37.5893561	127.07812380000001	clean	CN	Hangul	canonical	node	10126972326	전라도찬방
cn-hangul-canonical-0000000351	우림산업, 동일로 687, 서울특별시 02129	37.5919341	127.079929	clean	CN	Hangul	canonical	node	10138441705	우림산업
cn-hangul-canonical-0000000352	타이어뱅크, 동일로 699, 서울특별시 02123	37.592901700000006	127.07993470000001	clean	CN	Hangul	canonical	node	10138441846	타이어뱅크
cn-hangul-canonical-0000000353	한신공인중개사, 사가정로71길 19, 서울특별시 02196	37.5809256	127.0951617	clean	CN	Hangul	canonical	node	10170616530	한신공인중개사
cn-hangul-canonical-0000000354	부동산박사공인중개사사무소, 겸재로 155, 서울특별시 02145	37.5879093	127.084827	clean	CN	Hangul	canonical	node	10226295657	부동산박사공인중개사사무소
cn-hangul-canonical-0000000355	대순진리회 구리회관, 동구릉로53번길 48, 구리시	37.606956000000004	127.1329956	noisy	CN	Hangul	canonical	node	10244926055	대순진리회 구리회관
cn-hangul-canonical-0000000356	와부약국, 덕소로 94, 남양주시	37.585529400000006	127.2120589	noisy	CN	Hangul	canonical	node	10261815917	와부약국
cn-hangul-canonical-0000000357	러쉬룸, 답십리로75길 116, 서울특별시 02241	37.576816400000006	127.08072510000001	clean	CN	Hangul	canonical	node	10295412053	러쉬룸
cn-hangul-canonical-0000000358	스위크, 서방로9번길 71,  61190	35.174359100000004	126.91438050000001	noisy	CN	Hangul	canonical	node	10584241500	스위크
cn-hangul-canonical-0000000359	썬복사출력, 호동로 9-7,  61189	35.1750376	126.9132045	noisy	CN	Hangul	canonical	node	10599406133	썬복사출력
cn-hangul-canonical-0000000360	마신떡볶이, 동일로192길 85, 서울특별시 01833	37.6276193	127.0773487	clean	CN	Hangul	canonical	node	10601256328	마신떡볶이
cn-hangul-canonical-0000000361	장충동왕족발, 장터로 126-5, 태안군	36.5180571	126.3460215	noisy	CN	Hangul	canonical	node	10649875899	장충동왕족발
cn-hangul-canonical-0000000362	광저우88, 호동로43번길 37,  61189	35.1759906	126.91461980000001	noisy	CN	Hangul	canonical	node	10663372717	광저우88
cn-hangul-canonical-0000000363	안면도꽃이야기, 응지마을길 23-2, 태안군	36.518025800000004	126.34434580000001	noisy	CN	Hangul	canonical	node	10665343814	안면도꽃이야기
cn-hangul-canonical-0000000364	대성철물건재공구, 장터로 99-16, 태안군	36.515309	126.34560010000001	noisy	CN	Hangul	canonical	node	10665561948	대성철물건재공구
cn-hangul-canonical-0000000365	귀덕1리동방파제, 귀덕11길 23-3, 제주시 63024	33.4456167	126.2944748	clean	CN	Hangul	canonical	node	10694705438	귀덕1리동방파제
cn-hangul-canonical-0000000366	하나탁구교실, 한세로66번길 12, 군포시 15853	37.347586400000004	126.95578970000001	clean	CN	Hangul	canonical	node	10699214529	하나탁구교실
cn-hangul-canonical-0000000367	농협, 고산로151번길 28, 군포시 15853	37.346321200000006	126.95631870000001	clean	CN	Hangul	canonical	node	10709274195	농협
cn-hangul-canonical-0000000368	올리브영, 능동로 400, 서울특별시 04933	37.5652364	127.0843655	clean	CN	Hangul	canonical	node	10725986337	올리브영
cn-hangul-canonical-0000000369	서울굿모닝내과의원, 면목로 418, 서울특별시 02161	37.5893351	127.08757340000001	clean	CN	Hangul	canonical	node	10735453981	서울굿모닝내과의원
cn-hangul-canonical-0000000370	에쌍스, 반포대로4길 12, 서울특별시 06719	37.481863700000005	127.01339490000001	clean	CN	Hangul	canonical	node	10781246895	에쌍스
cn-hangul-canonical-0000000371	호감도 성수, 연무장9길 8-1, 서울특별시 04782	37.542909900000005	127.0561114	clean	CN	Hangul	canonical	node	10862521540	호감도 성수
cn-hangul-canonical-0000000372	정문약국, 백옥대로1068번길 9, 용인시 17063	37.2312038	127.21112980000001	clean	CN	Hangul	canonical	node	10973278404	정문약국
cn-hangul-canonical-0000000373	CU 도농빙그레점, 미금로 54	37.6097636	127.15202140000001	noisy	CN	Hangul	canonical	node	11112868982	CU 도농빙그레점
cn-hangul-canonical-0000000374	양묘 재배 체험장	35.287823800000005	129.1750896	noisy	CN	Hangul	canonical	node	11207025668	양묘 재배 체험장
cn-hangul-canonical-0000000375	원종길성그랑프리텔, 소사로748번길 29, 부천시 14424	37.523135100000005	126.8064497	clean	CN	Hangul	canonical	node	11256605445	원종길성그랑프리텔
cn-hangul-canonical-0000000376	신기루 오뎅바, 성수이로 37, 서울특별시 04775	37.5385871	127.05457120000001	clean	CN	Hangul	canonical	node	11287548866	신기루 오뎅바
cn-hangul-canonical-0000000377	멀메	36.061914200000004	126.9833478	noisy	CN	Hangul	canonical	node	11303503981	멀메
cn-hangul-canonical-0000000378	포항고용복지플러스센터, 중흥로221	36.0233415	129.3580265	noisy	CN	Hangul	canonical	node	11343227971	포항고용복지플러스센터
cn-hangul-canonical-0000000379	을찌로국물떡볶이, 계족로 10	36.3160339	127.44112750000001	noisy	CN	Hangul	canonical	node	11418306162	을찌로국물떡볶이
cn-hangul-canonical-0000000380	브로, 석봉로 135, 가평군	37.827231600000005	127.51144690000001	noisy	CN	Hangul	canonical	node	11506890090	브로
cn-hangul-canonical-0000000381	SKT대리점, 동일로 620, 서울특별시 02215	37.5858202	127.080115	clean	CN	Hangul	canonical	node	11549488468	SKT대리점
cn-hangul-canonical-0000000382	봉명동네커피, 미사강변한강로346번길 7	37.5599311	127.2014111	noisy	CN	Hangul	canonical	node	11710227861	봉명동네커피
cn-hangul-canonical-0000000383	형제전기냉동, 면목로42길 29, 서울특별시 02249	37.5793963	127.0895833	clean	CN	Hangul	canonical	node	11716966402	형제전기냉동
cn-hangul-canonical-0000000384	한국관악문화예술원, 화합로1327번길 1, 양주시 11449	37.8468468	127.06202800000001	clean	CN	Hangul	canonical	node	11733892393	한국관악문화예술원
cn-hangul-canonical-0000000385	여무시마을	37.715509600000004	126.85394880000001	noisy	CN	Hangul	canonical	node	11738759967	여무시마을
cn-hangul-canonical-0000000386	북경중화요리, 화합로 1373, 양주시 11450	37.842595	127.0626534	clean	CN	Hangul	canonical	node	11739162470	북경중화요리
cn-hangul-canonical-0000000387	영구스피자, 시민로 91, 양평군 12559	37.4910106	127.501681	clean	CN	Hangul	canonical	node	11751496897	영구스피자
cn-hangul-canonical-0000000388	공리수학, 중앙로 66, 양평군 12558	37.494624200000004	127.4961509	clean	CN	Hangul	canonical	node	11753819456	공리수학
cn-hangul-canonical-0000000389	뚜레쥬르, 이섭대천로 1200,  17373	37.277799	127.4473463	noisy	CN	Hangul	canonical	node	11786554458	뚜레쥬르
cn-hangul-canonical-0000000390	믿음건강원, 남천로 73-1, 이천시 17374	37.276920600000004	127.44563470000001	clean	CN	Hangul	canonical	node	11813199590	믿음건강원
cn-hangul-canonical-0000000391	게슐랭, 향교로 172-11, 이천시 17359	37.2849342	127.45646070000001	clean	CN	Hangul	canonical	node	11826551294	게슐랭
cn-hangul-canonical-0000000392	웰컴미스테익스하우스, 창의문로7길 27, 서울특별시 03022	37.591726300000005	126.9632265	clean	CN	Hangul	canonical	node	11831301757	웰컴미스테익스하우스
cn-hangul-canonical-0000000393	기아자동차, 시민로 102, 양평군 12560	37.490443	127.50284760000001	clean	CN	Hangul	canonical	node	11869621187	기아자동차
cn-hangul-canonical-0000000394	세븐일레븐, 양근로147번길 2, 양평군 12553	37.4924869	127.48773750000001	clean	CN	Hangul	canonical	node	11937338950	세븐일레븐
cn-hangul-canonical-0000000395	변호사김양호법률사무소, 양근로147번길 2, 양평군 12553	37.492431	127.4877455	clean	CN	Hangul	canonical	node	11937338951	변호사김양호법률사무소
cn-hangul-canonical-0000000396	파리바게뜨, 증신로 137, 이천시 17352	37.2883115	127.45323440000001	clean	CN	Hangul	canonical	node	12054620979	파리바게뜨
cn-hangul-canonical-0000000397	철판남, 자하문로1길 53, 서울특별시 03041	37.5769116	126.96947610000001	clean	CN	Hangul	canonical	node	12073037954	철판남
cn-hangul-canonical-0000000398	세광양대창용산점, 한강대로 144, 서울특별시 04382	37.5319556	126.97083420000001	clean	CN	Hangul	canonical	node	12073117559	세광양대창용산점
cn-hangul-canonical-0000000399	이동자, 학동로101길 11, 서울특별시 06075	37.5212146	127.05749680000001	clean	CN	Hangul	canonical	node	12073429779	이동자
cn-hangul-canonical-0000000400	순천미식, 남부순환로359길 10, 서울특별시 06268	37.4856764	127.036876	clean	CN	Hangul	canonical	node	12074304926	순천미식
cn-hangul-canonical-0000000401	피자먹다 구의점, 아차산로 459, 서울특별시 05035	37.5397562	127.09312430000001	clean	CN	Hangul	canonical	node	12074349224	피자먹다 구의점
cn-hangul-canonical-0000000402	조선대냉면, 대림로 146, 서울특별시 07422	37.4941377	126.9007217	clean	CN	Hangul	canonical	node	12074366336	조선대냉면
cn-hangul-canonical-0000000403	황제코다리&족발, 왕산로2길 32, 서울특별시 02582	37.5749802	127.0257813	clean	CN	Hangul	canonical	node	12074370220	황제코다리&족발
cn-hangul-canonical-0000000404	캔팩토리 본점, 보라매로 15-8, 서울특별시 08708	37.4909314	126.92626890000001	clean	CN	Hangul	canonical	node	12074396436	캔팩토리 본점
cn-hangul-canonical-0000000405	투존치킨구의점앤비어, 광나루로56길 29, 서울특별시 05119	37.537543400000004	127.09785710000001	clean	CN	Hangul	canonical	node	12074418115	투존치킨구의점앤비어
cn-hangul-canonical-0000000406	스타보틀 코리아, 월드컵로3길 14, 서울특별시 04024	37.550912700000005	126.9119656	clean	CN	Hangul	canonical	node	12074424635	스타보틀 코리아
cn-hangul-canonical-0000000407	난바우동, 마포대로11길 88, 서울특별시 04134	37.548864300000005	126.949392	clean	CN	Hangul	canonical	node	12074446034	난바우동
cn-hangul-canonical-0000000408	제이, 왕산로 225, 서울특별시 02490	37.582264200000004	127.04743810000001	clean	CN	Hangul	canonical	node	12074520652	제이
cn-hangul-canonical-0000000409	중국성, 자양번영로3길 38, 서울특별시 05092	37.5321902	127.07315070000001	clean	CN	Hangul	canonical	node	12074555491	중국성
cn-hangul-canonical-0000000410	비어캐빈 서대문구청점, 모래내로 351, 서울특별시 03654	37.5815015	126.9352183	clean	CN	Hangul	canonical	node	12074556804	비어캐빈 서대문구청점
cn-hangul-canonical-0000000411	폼나는 BAB, 반포대로7길 31, 서울특별시 06709	37.481995000000005	127.01033380000001	clean	CN	Hangul	canonical	node	12074560299	폼나는 BAB
cn-hangul-canonical-0000000412	꽃쟁반 일원점, 양재대로49길 5, 서울특별시 06342	37.490903	127.0864834	clean	CN	Hangul	canonical	node	12074579044	꽃쟁반 일원점
cn-hangul-canonical-0000000413	키친(Kitchen)2022, 63로 36, 서울특별시 07345	37.5192526	126.93851210000001	clean	CN	Hangul	canonical	node	12074579891	키친(Kitchen)2022
cn-hangul-canonical-0000000414	헤이쥬, 양화로 100-13, 서울특별시 04039	37.5525485	126.91930260000001	clean	CN	Hangul	canonical	node	12074587863	헤이쥬
cn-hangul-canonical-0000000415	더차림(the차림), 논현로167길 9, 서울특별시 06031	37.5244522	127.02740150000001	clean	CN	Hangul	canonical	node	12074595801	더차림(the차림)
cn-hangul-canonical-0000000416	까치호프, 약령중앙로 4, 서울특별시 02570	37.5785098	127.03692050000001	clean	CN	Hangul	canonical	node	12074598207	까치호프
cn-hangul-canonical-0000000417	한국식당, 왕산로16길 44, 서울특별시 02584	37.575822900000006	127.0310984	clean	CN	Hangul	canonical	node	12074602115	한국식당
cn-hangul-canonical-0000000418	(주)원조부안집강남점, 강남대로96길 19, 서울특별시 06129	37.5001611	127.02858520000001	clean	CN	Hangul	canonical	node	12074604341	(주)원조부안집강남점
cn-hangul-canonical-0000000419	가마솥영양탕, 긴고랑로22길 32, 서울특별시 04927	37.5606914	127.08354410000001	clean	CN	Hangul	canonical	node	12074618511	가마솥영양탕
cn-hangul-canonical-0000000420	나오스시, 가재울미래로 2, 서울특별시 03711	37.574984400000005	126.9154354	clean	CN	Hangul	canonical	node	12074654866	나오스시
cn-hangul-canonical-0000000421	옛날집, 남부순환로185길 14, 서울특별시 08755	37.4853474	126.93241780000001	clean	CN	Hangul	canonical	node	12074678021	옛날집
cn-hangul-canonical-0000000422	카페이립스, 고려대로7길 84-7, 서울특별시 02849	37.5893468	127.01870090000001	clean	CN	Hangul	canonical	node	12074682544	카페이립스
cn-hangul-canonical-0000000423	은행골, 국제금융로8길 19, 서울특별시 07333	37.5206638	126.9290239	clean	CN	Hangul	canonical	node	12074685445	은행골
cn-hangul-canonical-0000000424	답십리곱창, 답십리로51길 38, 서울특별시 02538	37.5737201	127.0577954	clean	CN	Hangul	canonical	node	12074708465	답십리곱창
cn-hangul-canonical-0000000425	새싹, 국회대로72길 17, 서울특별시 07238	37.5295742	126.9211853	clean	CN	Hangul	canonical	node	12074737052	새싹
cn-hangul-canonical-0000000426	두목, 답십리로 147, 서울특별시 02540	37.572967000000006	127.0563609	clean	CN	Hangul	canonical	node	12074756326	두목
cn-hangul-canonical-0000000427	스몰치즈박스(Smail Cheese Box), 논현로159길 25, 서울특별시 06032	37.522787300000005	127.02609070000001	clean	CN	Hangul	canonical	node	12074779075	스몰치즈박스(Smail Cheese Box)
cn-hangul-canonical-0000000428	멤버, 테헤란로6길 14, 서울특별시 06233	37.4976653	127.03045630000001	clean	CN	Hangul	canonical	node	12074785270	멤버
cn-hangul-canonical-0000000429	우촌숯불갈비, 장터길 44-1, 서울특별시 04725	37.5481563	127.02070450000001	clean	CN	Hangul	canonical	node	12074785842	우촌숯불갈비
cn-hangul-canonical-0000000430	굽네치킨 논현1동점, 학동로6길 3, 서울특별시 06111	37.511391	127.0236751	clean	CN	Hangul	canonical	node	12074789467	굽네치킨 논현1동점
cn-hangul-canonical-0000000431	디엠룸술집, 서초대로77길 58, 서울특별시 06611	37.502537000000004	127.024371	clean	CN	Hangul	canonical	node	12076553119	디엠룸술집
cn-hangul-canonical-0000000432	계몽돈까스본사, 서초대로52길 25, 서울특별시 06634	37.49264	127.01480900000001	clean	CN	Hangul	canonical	node	12076553266	계몽돈까스본사
cn-hangul-canonical-0000000433	양재비어, 양재천로29길 15, 서울특별시 06747	37.479504000000006	127.04181000000001	clean	CN	Hangul	canonical	node	12076553466	양재비어
cn-hangul-canonical-0000000434	한미철강, 애련정로163번길 26, 이천시 17352	37.2858274	127.45043760000001	clean	CN	Hangul	canonical	node	12078646807	한미철강
cn-hangul-canonical-0000000435	북한산통큰장어, 대서문길 11, 서울특별시 03307	37.657516300000005	126.9471419	clean	CN	Hangul	canonical	node	12079471514	북한산통큰장어
kr-hangul-canonical-0000000436	미스터아구 DMC점, 수색로 190, 서울특별시 03506	37.5786375	126.90167650000001	clean	KR	Hangul	canonical	node	12079472271	미스터아구 DMC점
cn-hangul-canonical-0000000437	옥이네 김밥, 연서로 247, 서울특별시 03345	37.619785900000004	126.9222141	clean	CN	Hangul	canonical	node	12079472985	옥이네 김밥
cn-hangul-canonical-0000000438	별일이네 김밥과 스파게티, 진관2로 90, 서울특별시 03310	37.634012500000004	126.9273842	clean	CN	Hangul	canonical	node	12079474291	별일이네 김밥과 스파게티
cn-hangul-canonical-0000000439	오현태 더 족발, 통일로 1010, 서울특별시 03311	37.633111	126.9183115	clean	CN	Hangul	canonical	node	12079474917	오현태 더 족발
cn-hangul-canonical-0000000440	이모네왕파전;이모네파전투(Ⅱ), 회기로28길 12-3, 서울특별시 02446	37.5891499	127.05595950000001	clean	CN	Hangul	canonical	node	12082114044	이모네왕파전;이모네파전투(Ⅱ)
cn-hangul-canonical-0000000441	오성씨엔아이, 향교로107번길 5, 이천시 17357	37.284426200000006	127.44928730000001	clean	CN	Hangul	canonical	node	12083516125	오성씨엔아이
cn-hangul-canonical-0000000442	현대가든, 이섭대천로 981, 이천시 17391	37.2584506	127.44474400000001	clean	CN	Hangul	canonical	node	12089660904	현대가든
cn-hangul-canonical-0000000443	수영재학원, 구만리로 130, 이천시 17391	37.2696185	127.4500658	clean	CN	Hangul	canonical	node	12095673392	수영재학원
cn-hangul-canonical-0000000444	서민회수산, 청호로 435-6, 대구광역시 42091	35.8560503	128.6401342	clean	CN	Hangul	canonical	node	12323132082	서민회수산
kr-hangul-canonical-0000000445	랩지티, 삼원로3길 71, 고양시	37.641611600000005	126.8758523	noisy	KR	Hangul	canonical	node	12361324484	랩지티
cn-hangul-canonical-0000000446	참약사든든약국, 신장동로29번길 40, 하남시 12948	37.5440715	127.2121774	clean	CN	Hangul	canonical	node	12378524735	참약사든든약국
cn-hangul-canonical-0000000447	봄마트, 미장9길 17, 군산시	35.9617264	126.7327587	noisy	CN	Hangul	canonical	node	12383737802	봄마트
cn-hangul-canonical-0000000448	세븐일레븐, 개봉로11길 35, 서울특별시 08352	37.487882	126.85407690000001	clean	CN	Hangul	canonical	node	12409065762	세븐일레븐
cn-hangul-canonical-0000000449	새보라매약, 보라매로5길 5, 서울특별시 08708	37.4924479	126.92504720000001	clean	CN	Hangul	canonical	node	12411456590	새보라매약
cn-hangul-canonical-0000000450	CAFE93도, 신포1길 26, 완주군	35.925918700000004	127.12046780000001	noisy	CN	Hangul	canonical	node	12428760506	CAFE93도
cn-hangul-canonical-0000000451	장수약국, 고산로 16, 제주시 63008	33.302404	126.1797624	clean	CN	Hangul	canonical	node	12461992351	장수약국
cn-hangul-canonical-0000000452	다온약국, 중문로 7, 서귀포시 63545	33.2526014	126.42318150000001	clean	CN	Hangul	canonical	node	12461992360	다온약국
cn-hangul-canonical-0000000453	신세계온누리약국, 월드컵로 8, 서귀포시 63560	33.2489112	126.50735490000001	clean	CN	Hangul	canonical	node	12461992362	신세계온누리약국
cn-hangul-canonical-0000000454	밝은사랑약국, 노형로 407, 제주시 63099	33.4858599	126.4784623	clean	CN	Hangul	canonical	node	12462017270	밝은사랑약국
cn-hangul-canonical-0000000455	자연약국, 노연로 90, 제주시 63132	33.4857164	126.4896942	clean	CN	Hangul	canonical	node	12462017290	자연약국
cn-hangul-canonical-0000000456	고길보건진료소, 고길천4길 13-15, 평창군 25370	37.4045788	128.4551106	clean	CN	Hangul	canonical	node	12466280160	고길보건진료소
cn-hangul-canonical-0000000457	아야진보건진료소, 아야진해변길 83, 고성군 24756	38.2725128	128.55562210000002	clean	CN	Hangul	canonical	node	12466297839	아야진보건진료소
cn-hangul-canonical-0000000458	화도보건지소, 마니산로 703-14, 인천광역시 23060	37.6316897	126.4198465	clean	CN	Hangul	canonical	node	12466335107	화도보건지소
cn-hangul-canonical-0000000459	예감당한의원, 하귀로 134, 제주시 63052	33.4845108	126.41010700000001	clean	CN	Hangul	canonical	node	12492135947	예감당한의원
cn-hangul-canonical-0000000460	제주보화당한의원, 노형로 407, 제주시 63099	33.4858309	126.47831880000001	clean	CN	Hangul	canonical	node	12492135966	제주보화당한의원
cn-hangul-canonical-0000000461	남대감물회냉면치킨호프, 장성3길 26-9	34.7540531	127.65479950000001	noisy	CN	Hangul	canonical	node	12514558749	남대감물회냉면치킨호프
cn-hangul-canonical-0000000462	화이트365 건대입구점, 동일로24길 56, 서울특별시 05019	37.5430772	127.06818200000001	clean	CN	Hangul	canonical	node	12686641122	화이트365 건대입구점
cn-hangul-canonical-0000000463	초남, 초남길 1-37, 광양시 57759	34.9296632	127.60834020000001	clean	CN	Hangul	canonical	node	12783760486	초남
cn-hangul-canonical-0000000464	목감교회, 조남길 25, 시흥시 14984	37.382151400000005	126.8600198	clean	CN	Hangul	canonical	node	12825801234	목감교회
cn-hangul-canonical-0000000465	애니세카이, 충장로 80-7,  61483	35.1480714	126.9157406	noisy	CN	Hangul	canonical	node	12848984630	애니세카이
cn-hangul-canonical-0000000466	프라임PC카페 구파발역점, 진관2로 29-21, 서울특별시 03306	37.6357431	126.91937000000001	clean	CN	Hangul	canonical	node	12854971187	프라임PC카페 구파발역점
cn-hangul-canonical-0000000467	꾼고기, 남왕길 48-20, 시흥시 14985	37.3826606	126.8625971	clean	CN	Hangul	canonical	node	12870999485	꾼고기
cn-hangul-canonical-0000000468	삼일에스엠, 화합로1402번길 9-24, 양주시 11451	37.8407609	127.06584760000001	clean	CN	Hangul	canonical	node	12998242885	삼일에스엠
cn-hangul-canonical-0000000469	븟스시, 신성남로 123-1, 대전광역시 34116	36.391654100000004	127.35139810000001	clean	CN	Hangul	canonical	node	13001133999	븟스시
cn-hangul-canonical-0000000470	커피다, 화랑로45길 42-7, 서울특별시 01914	37.616943500000005	127.0656306	clean	CN	Hangul	canonical	node	13011059450	커피다
cn-hangul-canonical-0000000471	NH농협은행, 석계로 17, 서울특별시 01902	37.616345800000005	127.06424870000001	clean	CN	Hangul	canonical	node	13011064259	NH농협은행
cn-hangul-canonical-0000000472	동주, 독막로7길 41, 서울특별시 04047	37.5496898	126.9194307	clean	CN	Hangul	canonical	node	13027995435	동주
cn-hangul-canonical-0000000473	미래교육그룹, 아차산로 378, 서울특별시 05051	37.5365374	127.0848074	clean	CN	Hangul	canonical	node	13051558028	미래교육그룹
cn-hangul-canonical-0000000474	신장전통시장, 신장1로3번길 42, 하남시 12958	37.538560600000004	127.20510580000001	clean	CN	Hangul	canonical	node	13204476748	신장전통시장
cn-hangul-canonical-0000000475	서정리 전원마을	36.4153748	126.9389639	noisy	CN	Hangul	canonical	node	13423513376	서정리 전원마을
cn-hangul-canonical-0000000476	윤경희뷰티헤어, 휘경로 37, 서울특별시 02427	37.5949545	127.06401740000001	clean	CN	Hangul	canonical	node	13525316122	윤경희뷰티헤어
cn-hangul-canonical-0000000477	카페인중독, 전농로 207, 서울특별시 02543	37.5826976	127.05395130000001	clean	CN	Hangul	canonical	node	13525478278	카페인중독
cn-hangul-canonical-0000000478	우리홈마트, 동해대로 4266, 속초시 24852	38.1980942	128.5746353	clean	CN	Hangul	canonical	node	13544899339	우리홈마트
cn-hangul-canonical-0000000479	꽃타래, 용마공원로9길 27, 서울특별시 02180	37.59387	127.102952	clean	CN	Hangul	canonical	node	13556244047	꽃타래
cn-hangul-canonical-0000000480	MAC 신세계백화점 의정부점, 평화로 , 의정부시	37.7381369	127.04588810000001	noisy	CN	Hangul	canonical	node	13583976518	MAC 신세계백화점 의정부점
cn-hangul-canonical-0000000481	대연자원, 오강길 30-7, 나주시 58215	35.0318719	126.7576183	clean	CN	Hangul	canonical	node	13607263072	대연자원
cn-hangul-canonical-0000000482	라크마스튜디오, 봉은사로47길 58, 서울특별시 06100	37.513498600000005	127.04008420000001	clean	CN	Hangul	canonical	node	13629125381	라크마스튜디오
cn-hangul-canonical-0000000483	폰이조아, 자산로 157, 김천시 39585	36.124306100000005	128.1177917	clean	CN	Hangul	canonical	node	13666553588	폰이조아
cn-hangul-canonical-0000000484	김민재미용실, 월계로44나길 17, 노원구	37.6229336	127.05364850000001	noisy	CN	Hangul	canonical	node	13673683882	김민재미용실
cn-hangul-canonical-0000000485	나랑네일, 한글비석로24나길 8, 1층, 노원구	37.6624995	127.07199510000001	noisy	CN	Hangul	canonical	node	13673684090	나랑네일
cn-hangul-canonical-0000000486	명네일, 우이천로4길 42, 1층, 도봉구	37.634036900000005	127.04167930000001	noisy	CN	Hangul	canonical	node	13673684451	명네일
cn-hangul-canonical-0000000487	유수경헤어, 해등로 109, 상가동 101호, 도봉구	37.653339100000004	127.04084200000001	noisy	CN	Hangul	canonical	node	13673684722	유수경헤어
cn-hangul-canonical-0000000488	리즈뷰티네일(Liz Beauty : Nail), 도봉로141길 55, 1층 우측호, 도봉구	37.661594900000004	127.0389224	noisy	CN	Hangul	canonical	node	13673684988	리즈뷰티네일(Liz Beauty : Nail)
cn-hangul-canonical-0000000489	여성의도시, 도당로 36, 도봉구	37.661292700000004	127.03501600000001	noisy	CN	Hangul	canonical	node	13673685039	여성의도시
cn-hangul-canonical-0000000490	쉼,네일, 시루봉로 88, 제2층 제3호, 도봉구	37.658739700000005	127.0280563	noisy	CN	Hangul	canonical	node	13673685140	쉼,네일
cn-hangul-canonical-0000000491	마그누스 바버샵(MAGNUS BARBERSHOP), 마들로 550, 1층 102호, 도봉구	37.6605014	127.0496356	noisy	CN	Hangul	canonical	node	13673685256	마그누스 바버샵(MAGNUS BARBERSHOP)
cn-hangul-canonical-0000000492	미아미용노유센터, 도봉로61길 10, 강북구	37.6289041	127.02446850000001	noisy	CN	Hangul	canonical	node	13673685535	미아미용노유센터
cn-hangul-canonical-0000000493	헤어갤러리, 삼양로19길 109, 강북구	37.6161678	127.01738560000001	noisy	CN	Hangul	canonical	node	13673685588	헤어갤러리
cn-hangul-canonical-0000000494	오고파, 숭인로13길 52, 강북구	37.6148523	127.0271666	noisy	CN	Hangul	canonical	node	13673685629	오고파
cn-hangul-canonical-0000000495	주연, 인수봉로56길 18, 강북구	37.6365019	127.01388870000001	noisy	CN	Hangul	canonical	node	13673685661	주연
cn-hangul-canonical-0000000496	살롱아리, 숭인로 63-1, 지하1층, 강북구	37.612532300000005	127.02882790000001	noisy	CN	Hangul	canonical	node	13673686061	살롱아리
cn-hangul-canonical-0000000497	원헤어 가발점, 정릉로 456, 1층, 성북구	37.603159500000004	127.0318716	noisy	CN	Hangul	canonical	node	13673686425	원헤어 가발점
cn-hangul-canonical-0000000498	NAILD(네일디), 화랑로48길 16, 주상가동 112호, 성북구	37.613274100000005	127.06831430000001	noisy	CN	Hangul	canonical	node	13673686723	NAILD(네일디)
cn-hangul-canonical-0000000499	W뷰티, 보문로 125, 2층, 성북구	37.5861109	127.01865260000001	noisy	CN	Hangul	canonical	node	13673686771	W뷰티
cn-hangul-canonical-0000000500	올가드림뷰티, 돌곶이로8길 22, 301동 2층 209호, 성북구	37.6061441	127.06340870000001	noisy	CN	Hangul	canonical	node	13673686960	올가드림뷰티
cn-hangul-canonical-0000000501	마리뷰티케어, 종암로 132, 129호, 성북구	37.601796300000004	127.03374660000001	noisy	CN	Hangul	canonical	node	13673687040	마리뷰티케어
cn-hangul-canonical-0000000502	김희정, 돌곶이로25길 31, 성북구	37.6107606	127.0547655	noisy	CN	Hangul	canonical	node	13673687097	김희정
cn-hangul-canonical-0000000503	꽃단장, 동소문로 248, 105동 2층 9호, 성북구	37.6028797	127.02415160000001	noisy	CN	Hangul	canonical	node	13673687137	꽃단장
cn-hangul-canonical-0000000504	뮤헤어, 화랑로24길 9-11, 성북구	37.608188600000005	127.05313310000001	noisy	CN	Hangul	canonical	node	13673687370	뮤헤어
cn-hangul-canonical-0000000505	산호, 정릉로38라길 3, 성북구	37.6016829	127.0189124	noisy	CN	Hangul	canonical	node	13673687419	산호
cn-hangul-canonical-0000000506	샴푸헤어, 화랑로48길 16, 성북구	37.613274100000005	127.06831430000001	noisy	CN	Hangul	canonical	node	13673687422	샴푸헤어
cn-hangul-canonical-0000000507	플로라 네일아트, 면목로 389, 1층, 중랑구	37.586819600000005	127.08792670000001	noisy	CN	Hangul	canonical	node	13673687523	플로라 네일아트
cn-hangul-canonical-0000000508	우아한, 면목로 372, 1층, 중랑구	37.5851668	127.08858090000001	noisy	CN	Hangul	canonical	node	13673687630	우아한
cn-hangul-canonical-0000000509	바짜살롱, 중랑역로 5, 3층, 중랑구	37.5946075	127.07671160000001	noisy	CN	Hangul	canonical	node	13673688004	바짜살롱
cn-hangul-canonical-0000000510	김영, 면목로39길 5, 중랑구	37.579567700000005	127.0869509	noisy	CN	Hangul	canonical	node	13673688185	김영
cn-hangul-canonical-0000000511	오땡큐, 동일로96길 40, 1층, 중랑구	37.5846569	127.0820881	noisy	CN	Hangul	canonical	node	13673688312	오땡큐
cn-hangul-canonical-0000000512	정화, 용마산로 197, 중랑구	37.5712703	127.08594280000001	noisy	CN	Hangul	canonical	node	13673688371	정화
cn-hangul-canonical-0000000513	맨드살롱 5호점, 회기로21길 13, 1층, 동대문구	37.5920962	127.0531445	noisy	CN	Hangul	canonical	node	13673688829	맨드살롱 5호점
cn-hangul-canonical-0000000514	별헤어 제이네일, 답십리로64길 103, 1층, 동대문구	37.568494900000005	127.06520470000001	noisy	CN	Hangul	canonical	node	13673688896	별헤어 제이네일
cn-hangul-canonical-0000000515	까르띠, 한천로36길 8, 동대문구	37.575744	127.06808020000001	noisy	CN	Hangul	canonical	node	13673689241	까르띠
cn-hangul-canonical-0000000516	샤론미용실, 답십리로68길 138, B동 1층, 동대문구	37.5668817	127.06630030000001	noisy	CN	Hangul	canonical	node	13673689243	샤론미용실
cn-hangul-canonical-0000000517	최민우헤어비전, 제기로31길 10-3, 121동 208호, 동대문구	37.5881385	127.04728410000001	noisy	CN	Hangul	canonical	node	13673689319	최민우헤어비전
cn-hangul-canonical-0000000518	블랭크유 구의역점, 아차산로 380, 2층, 광진구	37.5366178	127.08499690000001	noisy	CN	Hangul	canonical	node	13673689819	블랭크유 구의역점
cn-hangul-canonical-0000000519	로라뷰티(Rora Beauty), 천호대로111길 50, 유진아트빌 1층, 광진구	37.558427300000005	127.08321360000001	noisy	CN	Hangul	canonical	node	13673689941	로라뷰티(Rora Beauty)
cn-hangul-canonical-0000000520	갤러리헤어, 동일로72길 46, 광진구	37.5653038	127.0799372	noisy	CN	Hangul	canonical	node	13673690273	갤러리헤어
cn-hangul-canonical-0000000521	탐미, 아차산로 401-14, 4층 401호, 광진구	37.5380662	127.08702720000001	noisy	CN	Hangul	canonical	node	13673690760	탐미
cn-hangul-canonical-0000000522	보라보라 스킨테라피, 자양로43길 48, 4층 401호, 광진구	37.552769600000005	127.09031110000001	noisy	CN	Hangul	canonical	node	13673691023	보라보라 스킨테라피
cn-hangul-canonical-0000000523	윤 에스테틱, 자양로19길 47, 1층 101호, 광진구	37.5380368	127.08091730000001	noisy	CN	Hangul	canonical	node	13673691059	윤 에스테틱
cn-hangul-canonical-0000000524	옐로우네일, 아차산로7길 19, 1층, 성동구	37.5468673	127.05470150000001	noisy	CN	Hangul	canonical	node	13673691259	옐로우네일
cn-hangul-canonical-0000000525	디유에스테틱(Dieu Aesthetic), 왕십리로 294-2, 5층, 성동구	37.560450700000004	127.03632950000001	noisy	CN	Hangul	canonical	node	13673691402	디유에스테틱(Dieu Aesthetic)
cn-hangul-canonical-0000000526	현대, 성덕정길 82-1, 성동구	37.537776900000004	127.05258710000001	noisy	CN	Hangul	canonical	node	13673691629	현대
cn-hangul-canonical-0000000527	세라, 금호산2길 13, 성동구	37.5488994	127.02099670000001	noisy	CN	Hangul	canonical	node	13673691756	세라
cn-hangul-canonical-0000000528	미인앤코(MIIN&CO.), 마장로 137, 221동 1층 1204호, 성동구	37.5693847	127.0248265	noisy	CN	Hangul	canonical	node	13673692020	미인앤코(MIIN&CO.)
cn-hangul-canonical-0000000529	뤼미에르, 한강대로 95, 지1층 106-1호, 용산구	37.528966100000005	126.96680370000001	noisy	CN	Hangul	canonical	node	13673692212	뤼미에르
cn-hangul-canonical-0000000530	센소리움 서울(SENSORIUM SEOUL), 원효로41길 24, 3층, 용산구	37.5346453	126.9588956	noisy	CN	Hangul	canonical	node	13673692318	센소리움 서울(SENSORIUM SEOUL)
cn-hangul-canonical-0000000531	손톱까끼, 청파로45길 12-1, 1층, 용산구	37.5444011	126.96991770000001	noisy	CN	Hangul	canonical	node	13673692380	손톱까끼
cn-hangul-canonical-0000000532	고운미용실, 청구로12길 15, 중구	37.561453300000004	127.0126376	noisy	CN	Hangul	canonical	node	13673692756	고운미용실
cn-hangul-canonical-0000000533	신라에스테, 명동8가길 52, 2층, 중구	37.561749	126.98795870000001	noisy	CN	Hangul	canonical	node	13673692769	신라에스테
cn-hangul-canonical-0000000534	삼층네일, 서소문로 139, 302호, 중구	37.5641435	126.976211	noisy	CN	Hangul	canonical	node	13673692903	삼층네일
cn-hangul-canonical-0000000535	이상미헤어작업실, 퇴계로 220, 중구	37.5615224	126.9962471	noisy	CN	Hangul	canonical	node	13673693017	이상미헤어작업실
cn-hangul-canonical-0000000536	쥬쥬헤어, 동호로11길 50, 1층 104호, 중구	37.5531662	127.00862740000001	noisy	CN	Hangul	canonical	node	13673693141	쥬쥬헤어
cn-hangul-canonical-0000000537	디디앤디(D.D&D), 명동8길 8-10, 1층, 중구	37.5633737	126.98409960000001	noisy	CN	Hangul	canonical	node	13673693199	디디앤디(D.D&D)
cn-hangul-canonical-0000000538	에이바헤어 종각역점, 삼일대로 392, 효원빌딩 2,3층, 종로구	37.5695435	126.9880231	noisy	CN	Hangul	canonical	node	13673693360	에이바헤어 종각역점
cn-hangul-canonical-0000000539	오경희 헤어, 명륜길 53, 1층, 종로구	37.589284500000005	126.99426650000001	noisy	CN	Hangul	canonical	node	13673693541	오경희 헤어
cn-hangul-canonical-0000000540	시아 네일(Sia Nail), 사직로8길 20, 1층 115호, 종로구	37.574277900000006	126.97076290000001	noisy	CN	Hangul	canonical	node	13673693600	시아 네일(Sia Nail)
cn-hangul-canonical-0000000541	셀프염색카페, 율곡로 252-1, 1층, 종로구	37.574390300000005	127.00595740000001	noisy	CN	Hangul	canonical	node	13673693709	셀프염색카페
cn-hangul-canonical-0000000542	풍림홀, 봉은사로51길 23, 강남구	37.5115363	127.042275	noisy	CN	Hangul	canonical	node	13690021680	풍림홀
cn-hangul-canonical-0000000543	관악아트홀, 신림로3길 35, 관악구	37.467943000000005	126.9448993	noisy	CN	Hangul	canonical	node	13690043135	관악아트홀
cn-hangul-canonical-0000000544	제일시네마, 왕산로 240, 동대문구	37.5825819	127.04874760000001	noisy	CN	Hangul	canonical	node	13690043325	제일시네마
cn-hangul-canonical-0000000545	국립정동극장, 정동길 43, 중구	37.5658807	126.9728819	noisy	CN	Hangul	canonical	node	13690043471	국립정동극장
cn-hangul-canonical-0000000546	앰파이어가무단, 다동길 16, 중구	37.5677819	126.98016840000001	noisy	CN	Hangul	canonical	node	13690043490	앰파이어가무단
cn-hangul-canonical-0000000547	신한예술단, 동호로 197, 중구	37.5555894	127.0096252	noisy	CN	Hangul	canonical	node	13690043503	신한예술단
cn-hangul-canonical-0000000548	Ground-SYN(그라운드 씬), 성균관로 87, 종로구	37.589976400000005	126.9982882	noisy	CN	Hangul	canonical	node	13690043566	Ground-SYN(그라운드 씬)
cn-hangul-canonical-0000000549	유니네일, 독산로 124, E동 1층, 금천구	37.4583138	126.90560920000001	noisy	CN	Hangul	canonical	node	13690050032	유니네일
cn-hangul-canonical-0000000550	일리아, 시흥대로102길 23, 1층 101호, 금천구	37.4645442	126.89829510000001	noisy	CN	Hangul	canonical	node	13690050041	일리아
cn-hangul-canonical-0000000551	이훈 올 30000, 범안로 1138, 고려테크온 204호, 금천구	37.465794100000004	126.8883969	noisy	CN	Hangul	canonical	node	13690050145	이훈 올 30000
cn-hangul-canonical-0000000552	길미용실, 독산로44길 31, 금천구	37.4612412	126.9064709	noisy	CN	Hangul	canonical	node	13690050230	길미용실
cn-hangul-canonical-0000000553	헤어캐슬, 독산로50길 76, 금천구	37.462421500000005	126.90840920000001	noisy	CN	Hangul	canonical	node	13690050306	헤어캐슬
cn-hangul-canonical-0000000554	여우네, 독산로 4, 지상1층, 금천구	37.4485018	126.9037066	noisy	CN	Hangul	canonical	node	13690050335	여우네
cn-hangul-canonical-0000000555	네일다움, 금하로24길 44, 지상1층, 금천구	37.448995000000004	126.90831050000001	noisy	CN	Hangul	canonical	node	13690050572	네일다움
cn-hangul-canonical-0000000556	좋은날 헤어, 개봉로 17-1, 2층 201호, 구로구	37.4873275	126.8561456	noisy	CN	Hangul	canonical	node	13690050720	좋은날 헤어
cn-hangul-canonical-0000000557	누디 브로우바, 경인로20가길 5, 하늘쉼빌딩 9층 901-15호, 구로구	37.4954551	126.8441363	noisy	CN	Hangul	canonical	node	13690050765	누디 브로우바
cn-hangul-canonical-0000000558	예뻐질예정, 중앙로15길 151, 상가동 103호, 구로구	37.5078416	126.85125190000001	noisy	CN	Hangul	canonical	node	13690050822	예뻐질예정
cn-hangul-canonical-0000000559	옴므진, 경인로23길 16, 3층, 구로구	37.496992600000006	126.84380730000001	noisy	CN	Hangul	canonical	node	13690050899	옴므진
cn-hangul-canonical-0000000560	박철헤어칼라, 부일로1길 39, 101호, 구로구	37.4924295	126.8197233	noisy	CN	Hangul	canonical	node	13690051107	박철헤어칼라
cn-hangul-canonical-0000000561	루미에르 뷰티살롱, 경인로 382, 상가1동 지하층 B109,B110,B111,B112호, 구로구	37.4963598	126.86308720000001	noisy	CN	Hangul	canonical	node	13690051291	루미에르 뷰티살롱
cn-hangul-canonical-0000000562	네일하니, 도림로 51, 1층 일부호, 구로구	37.488556800000005	126.8896088	noisy	CN	Hangul	canonical	node	13690051298	네일하니
cn-hangul-canonical-0000000563	스칼렛, 새말로 97, 지하1층 104호, 구로구	37.5071154	126.89027270000001	noisy	CN	Hangul	canonical	node	13690051452	스칼렛
cn-hangul-canonical-0000000564	모아 미장원, 고척로21나길 55, 102호, 구로구	37.5020365	126.84268900000001	noisy	CN	Hangul	canonical	node	13690051564	모아 미장원
cn-hangul-canonical-0000000565	여우네일, 등촌로55길 17, 101호, 강서구	37.5503743	126.8628331	noisy	CN	Hangul	canonical	node	13690052005	여우네일
cn-hangul-canonical-0000000566	뉴이브왁싱, 마곡서로 158, 마곡센트럴타워Ⅱ 3층 312호, 강서구	37.568091700000004	126.82542400000001	noisy	CN	Hangul	canonical	node	13690052136	뉴이브왁싱
cn-hangul-canonical-0000000567	은 피부관리, 강서로12길 8-8, 1층 105호, 강서구	37.5313304	126.84742960000001	noisy	CN	Hangul	canonical	node	13690052344	은 피부관리
cn-hangul-canonical-0000000568	예원헤어, 초록마을로5길 2, 강서구	37.542799800000004	126.84735490000001	noisy	CN	Hangul	canonical	node	13690052444	예원헤어
cn-hangul-canonical-0000000569	젠틀클럽, 양천로14길 35, 1층, 강서구	37.571542400000006	126.8101103	noisy	CN	Hangul	canonical	node	13690052900	젠틀클럽
cn-hangul-canonical-0000000570	오가다 헤어, 양천로65길 17, 1층, 강서구	37.5559211	126.866212	noisy	CN	Hangul	canonical	node	13690052972	오가다 헤어
cn-hangul-canonical-0000000571	밀팜, 곰달래로 156-1, 1층, 강서구	37.5305744	126.85029240000001	noisy	CN	Hangul	canonical	node	13690053028	밀팜
cn-hangul-canonical-0000000572	그랜드사우나 실면도, 화곡로 347, 지하1층, 강서구	37.5549766	126.85145680000001	noisy	CN	Hangul	canonical	node	13690053065	그랜드사우나 실면도
cn-hangul-canonical-0000000573	PINE NAIL(피네 네일), 공항대로 247, 퀸즈파크나인 A동 340호, 강서구	37.559313800000005	126.835239	noisy	CN	Hangul	canonical	node	13690053465	PINE NAIL(피네 네일)
cn-hangul-canonical-0000000574	이희주헤어(Lee hee ju hair), 목동동로 240, 상가동 2층 201호, 양천구	37.525996500000005	126.8726611	noisy	CN	Hangul	canonical	node	13690053995	이희주헤어(Lee hee ju hair)
cn-hangul-canonical-0000000575	한정금 체형관리실, 중앙로53길 65, 경창프라자 2층 204호, 양천구	37.5245254	126.8426019	noisy	CN	Hangul	canonical	node	13690054049	한정금 체형관리실
cn-hangul-canonical-0000000576	살롱 바이 마리(Marie), 목동로19길 38, 1층 101호, 양천구	37.524705700000005	126.86021350000001	noisy	CN	Hangul	canonical	node	13690054202	살롱 바이 마리(Marie)
cn-hangul-canonical-0000000577	S헤어살롱, 목동중앙서로 32, 1층, 양천구	37.532738800000004	126.86727590000001	noisy	CN	Hangul	canonical	node	13690054393	S헤어살롱
cn-hangul-canonical-0000000578	조은염색, 은행정로4길 10, 1층, 양천구	37.520990600000005	126.860847	noisy	CN	Hangul	canonical	node	13690054470	조은염색
cn-hangul-canonical-0000000579	하니샵, 은행정로15길 2, 1층, 양천구	37.5259797	126.8587121	noisy	CN	Hangul	canonical	node	13690054497	하니샵
cn-hangul-canonical-0000000580	제일, 중앙로46길 9-1, 1층, 양천구	37.5222506	126.8532483	noisy	CN	Hangul	canonical	node	13690054597	제일
cn-hangul-canonical-0000000581	컷헤어, 오목로 34, 1층, 양천구	37.5216943	126.8414917	noisy	CN	Hangul	canonical	node	13690054630	컷헤어
cn-hangul-canonical-0000000582	왕자미용실, 목동중앙북로 60, 양천구	37.5468902	126.86969850000001	noisy	CN	Hangul	canonical	node	13690054768	왕자미용실
cn-hangul-canonical-0000000583	샤론스킨케어, 신목로2길 58-1, 2층, 양천구	37.5229051	126.8773007	noisy	CN	Hangul	canonical	node	13690054899	샤론스킨케어
cn-hangul-canonical-0000000584	준오헤어, 오목로 299, 목동트라팰리스 이마트 지하 2층, 양천구	37.5259239	126.87071630000001	noisy	CN	Hangul	canonical	node	13690055031	준오헤어
cn-hangul-canonical-0000000585	결이고은에스테틱, 양화로 45, 몰동 130.131.132호, 마포구	37.5509904	126.913909	noisy	CN	Hangul	canonical	node	13690055421	결이고은에스테틱
cn-hangul-canonical-0000000586	살롱피키, 성미산로1길 66, 한주팰리스 지상1층 102호, 마포구	37.5607107	126.9068749	noisy	CN	Hangul	canonical	node	13690055521	살롱피키
cn-hangul-canonical-0000000587	미니치네일, 양화로23길 10-9, 3층, 마포구	37.5593238	126.92560440000001	noisy	CN	Hangul	canonical	node	13690055522	미니치네일
cn-hangul-canonical-0000000588	카이정헤어 홍대상수역점, 어울마당로 35, 2층 202호, 마포구	37.5484975	126.92012410000001	noisy	CN	Hangul	canonical	node	13690055625	카이정헤어 홍대상수역점
cn-hangul-canonical-0000000589	웰펌 앤 웰컷, 큰우물로 51, 마포구	37.5424457	126.94439340000001	noisy	CN	Hangul	canonical	node	13690055950	웰펌 앤 웰컷
cn-hangul-canonical-0000000590	정선생전문스킨케어, 양화로 183, 마포구	37.558364700000006	126.9251655	noisy	CN	Hangul	canonical	node	13690055956	정선생전문스킨케어
cn-hangul-canonical-0000000591	네일치프(chief), 와우산로29길 40, B01호, 마포구	37.5555528	126.92805800000001	noisy	CN	Hangul	canonical	node	13690056079	네일치프(chief)
cn-hangul-canonical-0000000592	헤어큐브, 동교로 162-10, 1층, 마포구	37.5552924	126.92025240000001	noisy	CN	Hangul	canonical	node	13690056249	헤어큐브
cn-hangul-canonical-0000000593	탈모 아미치 0.3 공덕점, 백범로 202, 204호, 마포구	37.5427351	126.95260460000002	noisy	CN	Hangul	canonical	node	13690056328	탈모 아미치 0.3 공덕점
cn-hangul-canonical-0000000594	주은 헤어, 동교로 280, 1층 좌측호, 마포구	37.564126300000005	126.9265881	noisy	CN	Hangul	canonical	node	13690056552	주은 헤어
cn-hangul-canonical-0000000595	연헤어(YEON HAIR), 독막로 155, 무크하우스 2층, 마포구	37.5477046	126.9310222	noisy	CN	Hangul	canonical	node	13690056603	연헤어(YEON HAIR)
cn-hangul-canonical-0000000596	꼼마 헤어&메이크업(Comma Hair&makeup), 동교로25길 5, 2층 일부호, 마포구	37.557399000000004	126.92202160000001	noisy	CN	Hangul	canonical	node	13690056767	꼼마 헤어&메이크업(Comma Hair&makeup)
cn-hangul-canonical-0000000597	아라뷰티, 희우정로16길 43, 101호, 마포구	37.5548486	126.9043462	noisy	CN	Hangul	canonical	node	13690056828	아라뷰티
cn-hangul-canonical-0000000598	디엘르, 마포대로 115-12, 공덕삼성아파트 상가동 5층 504호, 마포구	37.5456686	126.951149	noisy	CN	Hangul	canonical	node	13690056838	디엘르
cn-hangul-canonical-0000000599	홍대 붙이다니 붙임머리, 와우산로23길 35-8, 3층, 마포구	37.5545984	126.9231824	noisy	CN	Hangul	canonical	node	13690056978	홍대 붙이다니 붙임머리
cn-hangul-canonical-0000000600	구민선헤어, 독립문공원길 17, 205호, 서대문구	37.571877400000005	126.95699640000001	noisy	CN	Hangul	canonical	node	13690057494	구민선헤어
cn-hangul-canonical-0000000601	제이 미용실, 모래내로24길 13, 서대문구	37.5837556	126.94410470000001	noisy	CN	Hangul	canonical	node	13690057565	제이 미용실
cn-hangul-canonical-0000000602	동아, 경기대로 39, 서대문구	37.5629554	126.96190870000001	noisy	CN	Hangul	canonical	node	13690057668	동아
cn-hangul-canonical-0000000603	하미네일, 신촌로35길 3, 우리빌딩 2층, 서대문구	37.557679300000004	126.9552024	noisy	CN	Hangul	canonical	node	13690057785	하미네일
cn-hangul-canonical-0000000604	자애헤어라인, 통일로25길 30, 208호, 서대문구	37.5830347	126.94712650000001	noisy	CN	Hangul	canonical	node	13690057840	자애헤어라인
cn-hangul-canonical-0000000605	브린헤어, 통일로 697, 남영빌딩 3층 일부호, 은평구	37.6081604	126.9316412	noisy	CN	Hangul	canonical	node	13690057911	브린헤어
cn-hangul-canonical-0000000606	은하수사우나 내 미용, 갈현로 100, 1층, 은평구	37.6066723	126.9107895	noisy	CN	Hangul	canonical	node	13690057912	은하수사우나 내 미용
cn-hangul-canonical-0000000607	아리아헤어, 역말로 21, 지상1층, 은평구	37.605808	126.912818	noisy	CN	Hangul	canonical	node	13690057949	아리아헤어
cn-hangul-canonical-0000000608	헤어 더 쿠(Hair The Qoo) 점핑점, 통일로 904, 2층, 은평구	37.623652400000005	126.92013670000001	noisy	CN	Hangul	canonical	node	13690058032	헤어 더 쿠(Hair The Qoo) 점핑점
cn-hangul-canonical-0000000609	라이크네일, 백련산로 38, 상가1동 지하2층 102호, 은평구	37.5907508	126.9235223	noisy	CN	Hangul	canonical	node	13690058067	라이크네일
cn-hangul-canonical-0000000610	네일혜, 갈현로 36, 무신빌딩 1층, 은평구	37.601037600000005	126.91042990000001	noisy	CN	Hangul	canonical	node	13690058319	네일혜
cn-hangul-canonical-0000000611	12월, 가좌로10길 2, 1층 102호, 은평구	37.591047100000004	126.916509	noisy	CN	Hangul	canonical	node	13690058395	12월
cn-hangul-canonical-0000000612	모리, 갈현로4길 36, 지하1층 B01호, 은평구	37.6006007	126.91386770000001	noisy	CN	Hangul	canonical	node	13690058425	모리
cn-hangul-canonical-0000000613	뷰티플러스(예쁜속눈썹), 연서로 132, 은평구	37.6105344	126.91727960000001	noisy	CN	Hangul	canonical	node	13690058426	뷰티플러스(예쁜속눈썹)
cn-hangul-canonical-0000000614	김주희 피부관리, 진흥로1길 47, 은평구	37.604587	126.91820390000001	noisy	CN	Hangul	canonical	node	13690058437	김주희 피부관리
cn-hangul-canonical-0000000615	깜지네일 앤 뷰티, 증산서길 70, 지상1층, 은평구	37.582695900000004	126.90590820000001	noisy	CN	Hangul	canonical	node	13690058540	깜지네일 앤 뷰티
cn-hangul-canonical-0000000616	늘헤어, 상계로 193-14, 2층 209호, 노원구	37.6628337	127.07439380000001	noisy	CN	Hangul	canonical	node	13690059302	늘헤어
kr-hangul-canonical-0000000617	구미시체육회관, 박정희로 375-20, 구미시 39323			clean	KR	Hangul	canonical	relation	9228118	구미시체육회관
kr-hangul-canonical-0000000618	풍림아파트 201동, 동천로 18, 용인시 16825			clean	KR	Hangul	canonical	relation	10110132	풍림아파트 201동
kr-hangul-canonical-0000000619	앰배서더 서울 풀만 호텔, 동호로 287, 서울특별시 04618			clean	KR	Hangul	canonical	relation	15077072	앰배서더 서울 풀만 호텔
kr-hangul-canonical-0000000620	능원초등학교, 충렬로 8번길 57,  16884			noisy	KR	Hangul	canonical	relation	16153764	능원초등학교
kr-hangul-canonical-0000000621	소병대도			noisy	KR	Hangul	canonical	relation	20218876	소병대도
kr-hangul-canonical-0000000622	흑도			noisy	KR	Hangul	canonical	way	15474495	흑도
kr-hangul-canonical-0000000623	외도			noisy	KR	Hangul	canonical	way	15474722	외도
kr-hangul-canonical-0000000624	알섬			noisy	KR	Hangul	canonical	way	15475652	알섬
kr-hangul-canonical-0000000625	도요등			noisy	KR	Hangul	canonical	way	22783455	도요등
kr-hangul-canonical-0000000626	103동, 전주시			noisy	KR	Hangul	canonical	way	36939944	103동
kr-hangul-canonical-0000000627	고센시티 (GoShen City), 중앙로1길 1			noisy	KR	Hangul	canonical	way	39761562	고센시티 (GoShen City)
kr-hangul-canonical-0000000628	제3공학관, 부산광역시			noisy	KR	Hangul	canonical	way	108067572	제3공학관
kr-hangul-canonical-0000000629	205동, 전주시			noisy	KR	Hangul	canonical	way	116076024	205동
kr-hangul-canonical-0000000630	101동, 전주시			noisy	KR	Hangul	canonical	way	116272384	101동
kr-hangul-canonical-0000000631	102동, 전주시			noisy	KR	Hangul	canonical	way	116291382	102동
kr-hangul-canonical-0000000632	103동, 전주시			noisy	KR	Hangul	canonical	way	116794438	103동
kr-hangul-canonical-0000000633	101동, 전주시			noisy	KR	Hangul	canonical	way	116794451	101동
kr-hangul-canonical-0000000634	105동, 전주시			noisy	KR	Hangul	canonical	way	116893133	105동
kr-hangul-canonical-0000000635	F동, 전주시			noisy	KR	Hangul	canonical	way	116909664	F동
kr-hangul-canonical-0000000636	115동, 부산광역시			noisy	KR	Hangul	canonical	way	117611004	115동
kr-hangul-canonical-0000000637	진흙속의연꽃사랑운동회, 곰밭길 16			noisy	KR	Hangul	canonical	way	168026692	진흙속의연꽃사랑운동회
kr-hangul-canonical-0000000638	서해그랑블아파트, 늘푸른1길 32, 천안시 31099			clean	KR	Hangul	canonical	way	170091731	서해그랑블아파트
kr-hangul-canonical-0000000639	그랑프리백화점, 서울특별시			noisy	KR	Hangul	canonical	way	182192512	그랑프리백화점
kr-hangul-canonical-0000000640	신원빌딩, 충무로 56			noisy	KR	Hangul	canonical	way	186841328	신원빌딩
kr-hangul-canonical-0000000641	하비에르 국제학교, 비봉길 23, 서울특별시 03000			clean	KR	Hangul	canonical	way	221499970	하비에르 국제학교
kr-hangul-canonical-0000000642	학마을영남아파트 114동, 장제로 878, 인천광역시 21035			clean	KR	Hangul	canonical	way	226087799	학마을영남아파트 114동
kr-hangul-canonical-0000000643	우이도보건진료소, 우이진리길 47-17			noisy	KR	Hangul	canonical	way	275923620	우이도보건진료소
kr-hangul-canonical-0000000644	숭의교회 샬롬하우스, 인주대로45번길 39, 인천광역시			noisy	KR	Hangul	canonical	way	281486549	숭의교회 샬롬하우스
kr-hangul-canonical-0000000645	마포평생학습관, 홍익로2길 16, 서울특별시 04054			clean	KR	Hangul	canonical	way	298530917	마포평생학습관
kr-hangul-canonical-0000000646	인천광역시교통연수원, 인천광역시			noisy	KR	Hangul	canonical	way	314528546	인천광역시교통연수원
kr-hangul-canonical-0000000647	센트럴프라자, 해돋이로 116, 인천광역시			noisy	KR	Hangul	canonical	way	314589322	센트럴프라자
kr-hangul-canonical-0000000648	삼청동주민센터, 삼청로 107, 서울특별시 03049			clean	KR	Hangul	canonical	way	316516033	삼청동주민센터
kr-hangul-canonical-0000000649	KPX타워, 마포대로 137, 서울특별시 04143			clean	KR	Hangul	canonical	way	317903518	KPX타워
kr-hangul-canonical-0000000650	플로우, 서울특별시			noisy	KR	Hangul	canonical	way	358095131	플로우
kr-hangul-canonical-0000000651	오일, 서울특별시			noisy	KR	Hangul	canonical	way	358286233	오일
kr-hangul-canonical-0000000652	라메이, 서울특별시			noisy	KR	Hangul	canonical	way	358286237	라메이
kr-hangul-canonical-0000000653	간사이오뎅, 서울특별시			noisy	KR	Hangul	canonical	way	358294582	간사이오뎅
kr-hangul-canonical-0000000654	GS25청담타운점, 서울특별시			noisy	KR	Hangul	canonical	way	358732744	GS25청담타운점
kr-hangul-canonical-0000000655	배우의봄연기학원, 서울특별시			noisy	KR	Hangul	canonical	way	358751034	배우의봄연기학원
kr-hangul-canonical-0000000656	공동실험실습관 (09), 인천광역시			noisy	KR	Hangul	canonical	way	367504005	공동실험실습관 (09)
kr-hangul-canonical-0000000657	서울개포1동우체국, 선릉로 36, 서울특별시 06325			clean	KR	Hangul	canonical	way	370383157	서울개포1동우체국
kr-hangul-canonical-0000000658	모슬포한의원, 신영로94번길 2, 서귀포시 63513			clean	KR	Hangul	canonical	way	374380760	모슬포한의원
kr-hangul-canonical-0000000659	청해식당, 화순중앙로124번길 31, 서귀포시 63530			clean	KR	Hangul	canonical	way	375025745	청해식당
kr-hangul-canonical-0000000660	산방산유람선, 화순해안로106번길 16, 서귀포시 63530			clean	KR	Hangul	canonical	way	375025765	산방산유람선
kr-hangul-canonical-0000000661	TOK첨단재료, 인천광역시			noisy	KR	Hangul	canonical	way	377087140	TOK첨단재료
kr-hangul-canonical-0000000662	영일빌딩, 풍덕천로 116, 용인시 16841			clean	KR	Hangul	canonical	way	389163887	영일빌딩
kr-hangul-canonical-0000000663	상무대주1차아파트, 상무공원로 92			noisy	KR	Hangul	canonical	way	407833793	상무대주1차아파트
kr-hangul-canonical-0000000664	난곡중학교, 문성로 67, 서울특별시 08549			clean	KR	Hangul	canonical	way	409779791	난곡중학교
kr-hangul-canonical-0000000665	삼현초등학교, 송양로 87,  11812			noisy	KR	Hangul	canonical	way	423896165	삼현초등학교
kr-hangul-canonical-0000000666	파인그로브 101동, 언남로29번길 17, 용인시 16916			clean	KR	Hangul	canonical	way	424486701	파인그로브 101동
kr-hangul-canonical-0000000667	백현마을8단지휴먼시아아파트, 판교역로 72, 성남시 13536			clean	KR	Hangul	canonical	way	428365417	백현마을8단지휴먼시아아파트
kr-hangul-canonical-0000000668	204동, 전주시			noisy	KR	Hangul	canonical	way	430305887	204동
kr-hangul-canonical-0000000669	약학대학 연구실험동, 세종로 2511, 세종특별자치시 30019			clean	KR	Hangul	canonical	way	434752710	약학대학 연구실험동
kr-hangul-canonical-0000000670	쌍용아파트, 인천광역시			noisy	KR	Hangul	canonical	way	437103416	쌍용아파트
kr-hangul-canonical-0000000671	LG 분당에클라트 2차, 서현로 204, 성남시 13591			clean	KR	Hangul	canonical	way	438493761	LG 분당에클라트 2차
kr-hangul-canonical-0000000672	보광아파트, 가마산로 231, 서울특별시 08284			clean	KR	Hangul	canonical	way	440026974	보광아파트
kr-hangul-canonical-0000000673	풍림아이원2차아파트, 선릉로72길 45, 서울특별시 06200			clean	KR	Hangul	canonical	way	443037517	풍림아이원2차아파트
kr-hangul-canonical-0000000674	보람코아, 서현로210번길 1, 성남시 13591			clean	KR	Hangul	canonical	way	445132842	보람코아
kr-hangul-canonical-0000000675	현대자동차 전주출고센터, 완주산단5로 163, 완주군 55322			clean	KR	Hangul	canonical	way	445139510	현대자동차 전주출고센터
kr-hangul-canonical-0000000676	지젤스포츠클럽, 보정로 32, 용인시 16903			clean	KR	Hangul	canonical	way	455491868	지젤스포츠클럽
kr-hangul-canonical-0000000677	신현맨션 나동, 고현로4길 40, 거제시			noisy	KR	Hangul	canonical	way	458015144	신현맨션 나동
kr-hangul-canonical-0000000678	상현성우5차아파트, 상현로 119-6, 용인시 16937			clean	KR	Hangul	canonical	way	460042572	상현성우5차아파트
kr-hangul-canonical-0000000679	일성빌딩, 갈현로 149-1, 서울특별시 03429			clean	KR	Hangul	canonical	way	463078807	일성빌딩
kr-hangul-canonical-0000000680	63스퀘어, 63로 50, 서울특별시 07345			clean	KR	Hangul	canonical	way	463384209	63스퀘어
kr-hangul-canonical-0000000681	거제시립옥포도서관, 진목로 20, 거제시			noisy	KR	Hangul	canonical	way	463841490	거제시립옥포도서관
kr-hangul-canonical-0000000682	마포중고등학교, 화곡로 403, 서울특별시 07576			clean	KR	Hangul	canonical	way	465543206	마포중고등학교
kr-hangul-canonical-0000000683	거제마린푸르지오2단지 아파트 204동, 용소1길 17-7, 거제시			noisy	KR	Hangul	canonical	way	465585902	거제마린푸르지오2단지 아파트 204동
kr-hangul-canonical-0000000684	106동, 갈현로17나길 16-1, 서울특별시 03429			clean	KR	Hangul	canonical	way	465749916	106동
kr-hangul-canonical-0000000685	인천광역시 보건환경연구원, 서해대로 471, 인천광역시 22320			clean	KR	Hangul	canonical	way	468227241	인천광역시 보건환경연구원
kr-hangul-canonical-0000000686	성안중학교, 석호로 81,  15503			noisy	KR	Hangul	canonical	way	468395763	성안중학교
kr-hangul-canonical-0000000687	진천군립 생거판화미술관, 진천군			noisy	KR	Hangul	canonical	way	468499531	진천군립 생거판화미술관
kr-hangul-canonical-0000000688	(주)퓨트로닉, 반송로513번길 66-21, 부산광역시 48002			clean	KR	Hangul	canonical	way	468565736	(주)퓨트로닉
kr-hangul-canonical-0000000689	벽산늘푸른아파트, 상방로 160, 울산광역시 44243			clean	KR	Hangul	canonical	way	468588627	벽산늘푸른아파트
kr-hangul-canonical-0000000690	소망유치원, 수원시			noisy	KR	Hangul	canonical	way	468620439	소망유치원
kr-hangul-canonical-0000000691	원주드림체육관, 현충로 53-1, 원주시			noisy	KR	Hangul	canonical	way	468620524	원주드림체육관
kr-hangul-canonical-0000000692	킹스빌타운2차아파트, 통일로 1276-17			noisy	KR	Hangul	canonical	way	468651882	킹스빌타운2차아파트
kr-hangul-canonical-0000000693	강서도시재생센터, 대저로 (Daejeoro) , 부산광역시			noisy	KR	Hangul	canonical	way	468928583	강서도시재생센터
kr-hangul-canonical-0000000694	참소망교회, 광성로6안길 7, 서울특별시 04096			clean	KR	Hangul	canonical	way	468937932	참소망교회
kr-hangul-canonical-0000000695	낙원아파트 마을회관, 월곡로45길 49, 대구광역시 42792			clean	KR	Hangul	canonical	way	468973432	낙원아파트 마을회관
kr-hangul-canonical-0000000696	흥왕교회, 방화대로6바길 43, 서울특별시 07645			clean	KR	Hangul	canonical	way	469031486	흥왕교회
kr-hangul-canonical-0000000697	원광고등학교, 무왕로			noisy	KR	Hangul	canonical	way	469036456	원광고등학교
kr-hangul-canonical-0000000698	반곡벽산블루밍2차아파트, 반곡길 45, 원주시 26457			clean	KR	Hangul	canonical	way	469060800	반곡벽산블루밍2차아파트
kr-hangul-canonical-0000000699	부평북초등학교병설유치원, 인천광역시			noisy	KR	Hangul	canonical	way	469091873	부평북초등학교병설유치원
kr-hangul-canonical-0000000700	김삿갓면 행정복지센터, 옥동장터길 36, 영월군 26245			clean	KR	Hangul	canonical	way	469104702	김삿갓면 행정복지센터
kr-hangul-canonical-0000000701	안중읍행정복지센터, 안현로 400, 평택시 17941			clean	KR	Hangul	canonical	way	469206531	안중읍행정복지센터
kr-hangul-canonical-0000000702	취업창업센터, 하양로 13-13, 경산시 38430			clean	KR	Hangul	canonical	way	469333711	취업창업센터
kr-hangul-canonical-0000000703	굿센텀빌딩, 부산광역시			noisy	KR	Hangul	canonical	way	469478348	굿센텀빌딩
kr-hangul-canonical-0000000704	침산화성타운2차아파트 101동, 침산남로37길 24, 대구광역시 41561			clean	KR	Hangul	canonical	way	469597095	침산화성타운2차아파트 101동
kr-hangul-canonical-0000000705	MBC 광주문화방송, 월산로116번길 17, 광주광역시			noisy	KR	Hangul	canonical	way	469647511	MBC 광주문화방송
kr-hangul-canonical-0000000706	내면중학교, 홍천군			noisy	KR	Hangul	canonical	way	469663598	내면중학교
kr-hangul-canonical-0000000707	원흥역봄오피스텔, 권율대로 672, 고양시 10564			clean	KR	Hangul	canonical	way	469669387	원흥역봄오피스텔
kr-hangul-canonical-0000000708	개포주공 7단지 아파트, 개포로 516, 서울특별시 06330			clean	KR	Hangul	canonical	way	469682980	개포주공 7단지 아파트
kr-hangul-canonical-0000000709	덕계빌라, 평화로 , 양주시			noisy	KR	Hangul	canonical	way	469802654	덕계빌라
kr-hangul-canonical-0000000710	다동, 인천광역시			noisy	KR	Hangul	canonical	way	469809244	다동
kr-hangul-canonical-0000000711	서해아파트, 인천광역시			noisy	KR	Hangul	canonical	way	469809246	서해아파트
kr-hangul-canonical-0000000712	한국항만물류고등학교 운동장, 신시길 117, 광양시 57707			clean	KR	Hangul	canonical	way	469870234	한국항만물류고등학교 운동장
kr-hangul-canonical-0000000713	고봉민김밥, 전주시			noisy	KR	Hangul	canonical	way	470116724	고봉민김밥
kr-hangul-canonical-0000000714	동서그린아파트, 부산광역시			noisy	KR	Hangul	canonical	way	470218976	동서그린아파트
kr-hangul-canonical-0000000715	맥클린21, 정발산로 31-21, 고양시 10402			clean	KR	Hangul	canonical	way	470498007	맥클린21
kr-hangul-canonical-0000000716	메르헨하우스 C동, 오포로171번길 17-176, 광주시			noisy	KR	Hangul	canonical	way	470603656	메르헨하우스 C동
kr-hangul-canonical-0000000717	고창군종합사회복지관, 전봉준로 88-15, 고창군			noisy	KR	Hangul	canonical	way	470893892	고창군종합사회복지관
kr-hangul-canonical-0000000718	마두동성당, 일산로 254, 고양시 10417			clean	KR	Hangul	canonical	way	470898216	마두동성당
kr-hangul-canonical-0000000719	부산울산지방병무청, 부산광역시			noisy	KR	Hangul	canonical	way	471305226	부산울산지방병무청
kr-hangul-canonical-0000000720	103동, 섭골길 59,  30016			noisy	KR	Hangul	canonical	way	471355830	103동
kr-hangul-canonical-0000000721	경일관광경영고등학교, 석수로 131,  15219			noisy	KR	Hangul	canonical	way	471722461	경일관광경영고등학교
kr-hangul-canonical-0000000722	고기가마니, 인천광역시			noisy	KR	Hangul	canonical	way	472051947	고기가마니
kr-hangul-canonical-0000000723	신일상가, 후곡로 22, 고양시 10375			clean	KR	Hangul	canonical	way	472055773	신일상가
kr-hangul-canonical-0000000724	106동, 부산광역시			noisy	KR	Hangul	canonical	way	472106659	106동
kr-hangul-canonical-0000000725	동구학문외과, 방어진순환도로 759, 울산광역시			noisy	KR	Hangul	canonical	way	472276464	동구학문외과
kr-hangul-canonical-0000000726	체육관, 서울특별시			noisy	KR	Hangul	canonical	way	472294568	체육관
kr-hangul-canonical-0000000727	242동,  242, 서울특별시			noisy	KR	Hangul	canonical	way	472434693	242동
kr-hangul-canonical-0000000728	서울강일동우체국, 아리수로91길 12, 서울특별시 05211			clean	KR	Hangul	canonical	way	473194626	서울강일동우체국
kr-hangul-canonical-0000000729	케이스톤빌딩, 논현로 125, 서울특별시 06746			clean	KR	Hangul	canonical	way	474310740	케이스톤빌딩
kr-hangul-canonical-0000000730	부산어린이회관, 부산광역시			noisy	KR	Hangul	canonical	way	474948347	부산어린이회관
kr-hangul-canonical-0000000731	1동, 마전1길 3, 거제시			noisy	KR	Hangul	canonical	way	474950106	1동
kr-hangul-canonical-0000000732	첨단 LH 행복주택 1단지, 광주광역시			noisy	KR	Hangul	canonical	way	475432236	첨단 LH 행복주택 1단지
kr-hangul-canonical-0000000733	베네스트 2, 온천대로 842번길 15-4, 아산시 31537			clean	KR	Hangul	canonical	way	475496638	베네스트 2
kr-hangul-canonical-0000000734	행신주유소, 중앙로 394, 고양시 10490			clean	KR	Hangul	canonical	way	475599244	행신주유소
kr-hangul-canonical-0000000735	명륜한신아파트, 부산광역시			noisy	KR	Hangul	canonical	way	477119363	명륜한신아파트
kr-hangul-canonical-0000000736	호용그린피아아파트, 화곡로43가길 44, 서울특별시 07689			clean	KR	Hangul	canonical	way	477275840	호용그린피아아파트
kr-hangul-canonical-0000000737	성환빌라, 화산로233번길 23, 수원시 16360			clean	KR	Hangul	canonical	way	478007273	성환빌라
kr-hangul-canonical-0000000738	힐 타운 (나), 화산로 243, 수원시 16360			clean	KR	Hangul	canonical	way	478007292	힐 타운 (나)
kr-hangul-canonical-0000000739	강남대학교 중앙도서관, 강남로 40, 용인시 16979			clean	KR	Hangul	canonical	way	478256365	강남대학교 중앙도서관
kr-hangul-canonical-0000000740	한국허벌라이프부산지사, 센텀5로 41, 부산광역시			noisy	KR	Hangul	canonical	way	479225329	한국허벌라이프부산지사
kr-hangul-canonical-0000000741	그랜드오피스텔 A동, 공대길 26, 천안시 31080			clean	KR	Hangul	canonical	way	479518955	그랜드오피스텔 A동
kr-hangul-canonical-0000000742	104동, 목감로 58, 광명시 14295			clean	KR	Hangul	canonical	way	479529357	104동
kr-hangul-canonical-0000000743	31동, 시흥대로 97, 서울특별시 08639			clean	KR	Hangul	canonical	way	480209560	31동
kr-hangul-canonical-0000000744	계림중학교, 용담로 68,  38086			noisy	KR	Hangul	canonical	way	480573280	계림중학교
kr-hangul-canonical-0000000745	천안청룡초등학교, 풍세로 801-28,  31202			noisy	KR	Hangul	canonical	way	480651769	천안청룡초등학교
kr-hangul-canonical-0000000746	두빛나래어린이도서관, 동탄숲속로 69-14, 화성시 18431			clean	KR	Hangul	canonical	way	480789523	두빛나래어린이도서관
kr-hangul-canonical-0000000747	행복빌, 오성5길 27, 천안시 31090			clean	KR	Hangul	canonical	way	480830508	행복빌
kr-hangul-canonical-0000000748	광교호수공원, 광교호수공원로 102, 수원시 16514			clean	KR	Hangul	canonical	way	480953426	광교호수공원
kr-hangul-canonical-0000000749	교동 행정복지센터, 교동길 19, 춘천시 24262			clean	KR	Hangul	canonical	way	481182766	교동 행정복지센터
kr-hangul-canonical-0000000750	동보노빌리티 아파트 1차아파트, 시청로 255, 원주시 26482			clean	KR	Hangul	canonical	way	482465631	동보노빌리티 아파트 1차아파트
kr-hangul-canonical-0000000751	하모니하우스, 오성7길 8, 천안시 31090			clean	KR	Hangul	canonical	way	483026396	하모니하우스
kr-hangul-canonical-0000000752	110동, 두동로 259-80, 거제시			noisy	KR	Hangul	canonical	way	486486215	110동
kr-hangul-canonical-0000000753	내남초등학교, 경덕로 286,  38193			noisy	KR	Hangul	canonical	way	488790890	내남초등학교
kr-hangul-canonical-0000000754	비너스빌, 늘푸른5길 42, 천안시 31099			clean	KR	Hangul	canonical	way	489484138	비너스빌
kr-hangul-canonical-0000000755	제우스빌, 늘푸른5길 46, 천안시 31099			clean	KR	Hangul	canonical	way	489484141	제우스빌
kr-hangul-canonical-0000000756	기성뷰그리안 3차아파트, 석천로 350, 부천시			noisy	KR	Hangul	canonical	way	489787136	기성뷰그리안 3차아파트
kr-hangul-canonical-0000000757	부천농협 춘의동지점, 부천시			noisy	KR	Hangul	canonical	way	490139740	부천농협 춘의동지점
kr-hangul-canonical-0000000758	1338동, 부흥로303번길 31, 부천시			noisy	KR	Hangul	canonical	way	490144604	1338동
kr-hangul-canonical-0000000759	농협, 부천시			noisy	KR	Hangul	canonical	way	490784106	농협
kr-hangul-canonical-0000000760	훼미리궁전빌라, 사임당로23길 , 서울특별시 06635			noisy	KR	Hangul	canonical	way	491242157	훼미리궁전빌라
kr-hangul-canonical-0000000761	월드빌딩, 상무시민로 130			noisy	KR	Hangul	canonical	way	493408585	월드빌딩
kr-hangul-canonical-0000000762	축복빌딩, 풍덕주택길 , 순천시			noisy	KR	Hangul	canonical	way	495105146	축복빌딩
kr-hangul-canonical-0000000763	106동, 벚꽃로 40, 서울특별시 08608			clean	KR	Hangul	canonical	way	499497108	106동
kr-hangul-canonical-0000000764	팔복빌딩, 상무평화로 (Sangmupyeonghwaro) 79			noisy	KR	Hangul	canonical	way	500585410	팔복빌딩
kr-hangul-canonical-0000000765	안일중학교, 안중로 25			noisy	KR	Hangul	canonical	way	503312024	안일중학교
kr-hangul-canonical-0000000766	기숙사동관, 부산광역시			noisy	KR	Hangul	canonical	way	504627694	기숙사동관
kr-hangul-canonical-0000000767	경남여자고등학교, 부산광역시			noisy	KR	Hangul	canonical	way	533222120	경남여자고등학교
kr-hangul-canonical-0000000768	403동, 남세종로 469			noisy	KR	Hangul	canonical	way	544459823	403동
kr-hangul-canonical-0000000769	802동, 보람동로 14			noisy	KR	Hangul	canonical	way	544480351	802동
kr-hangul-canonical-0000000770	태화아파트, 서악길 5, 안동시 36667			clean	KR	Hangul	canonical	way	546705815	태화아파트
kr-hangul-canonical-0000000771	새봄빌라, 원등1길 30-12			noisy	KR	Hangul	canonical	way	546716658	새봄빌라
kr-hangul-canonical-0000000772	효천초등학교, 수원시			noisy	KR	Hangul	canonical	way	547787102	효천초등학교
kr-hangul-canonical-0000000773	하남유니온파크 다목적체육관, 미사대로 710, 하남시 12941			clean	KR	Hangul	canonical	way	549283733	하남유니온파크 다목적체육관
kr-hangul-canonical-0000000774	511동, 수원시			noisy	KR	Hangul	canonical	way	549523669	511동
kr-hangul-canonical-0000000775	신성프라자, 삼송로 94-22, 고양시 10589			clean	KR	Hangul	canonical	way	550400817	신성프라자
kr-hangul-canonical-0000000776	110동, 수원시			noisy	KR	Hangul	canonical	way	552066610	110동
kr-hangul-canonical-0000000777	215동, 장안로 211, 수원시 16339			clean	KR	Hangul	canonical	way	552269645	215동
kr-hangul-canonical-0000000778	농서초등학교, 가재길 57			noisy	KR	Hangul	canonical	way	552484303	농서초등학교
kr-hangul-canonical-0000000779	신수동성원상떼빌아파트, 독막로28길 7, 서울특별시 04090			clean	KR	Hangul	canonical	way	552959836	신수동성원상떼빌아파트
kr-hangul-canonical-0000000780	침례신학대학교, 북유성대로 190			noisy	KR	Hangul	canonical	way	562162092	침례신학대학교
kr-hangul-canonical-0000000781	새한빌라 나동, 독정길 39, 화성시 18332			clean	KR	Hangul	canonical	way	567344125	새한빌라 나동
kr-hangul-canonical-0000000782	중부동공원, 인천광역시			noisy	KR	Hangul	canonical	way	574533519	중부동공원
kr-hangul-canonical-0000000783	서울우솔초등학교, 양재대로2길 74, 서울특별시 06767			clean	KR	Hangul	canonical	way	582383952	서울우솔초등학교
kr-hangul-canonical-0000000784	105동, 서울특별시			noisy	KR	Hangul	canonical	way	585571374	105동
kr-hangul-canonical-0000000785	위즈코프휴게소주유소 주암순천방향, 호남고속도로 23			noisy	KR	Hangul	canonical	way	606321413	위즈코프휴게소주유소 주암순천방향
kr-hangul-canonical-0000000786	금란교회, 서울특별시			noisy	KR	Hangul	canonical	way	606436992	금란교회
kr-hangul-canonical-0000000787	신원메트로빌, 남부순환로 1811, 서울특별시 08758			clean	KR	Hangul	canonical	way	607843362	신원메트로빌
kr-hangul-canonical-0000000788	이종구낙지세상, 중앙로558번길 7-18, 고양시 10495			clean	KR	Hangul	canonical	way	609293425	이종구낙지세상
kr-hangul-canonical-0000000789	디지털미디어스트리트			noisy	KR	Hangul	canonical	way	614021445	디지털미디어스트리트
kr-hangul-canonical-0000000790	북이초등학교, 신창길 13			noisy	KR	Hangul	canonical	way	621685656	북이초등학교
kr-hangul-canonical-0000000791	무정보건지소, 술지2길 20-10			noisy	KR	Hangul	canonical	way	623596088	무정보건지소
kr-hangul-canonical-0000000792	송림3·5동 행정복지센터, 새천년로 72, 인천광역시 22556			clean	KR	Hangul	canonical	way	628479826	송림3·5동 행정복지센터
kr-hangul-canonical-0000000793	기장경찰서, 부산광역시			noisy	KR	Hangul	canonical	way	629144200	기장경찰서
kr-hangul-canonical-0000000794	방배롯데캐슬헤론아파트, 동광로1길 112, 서울특별시 06551			clean	KR	Hangul	canonical	way	638634810	방배롯데캐슬헤론아파트
kr-hangul-canonical-0000000795	광양만권 경제자유구역청, 인덕로 1100, 광양시 57741			clean	KR	Hangul	canonical	way	640291710	광양만권 경제자유구역청
kr-hangul-canonical-0000000796	신암면 행정복지센터, 종경길 70, 예산군 32418			clean	KR	Hangul	canonical	way	648144973	신암면 행정복지센터
kr-hangul-canonical-0000000797	신천성당 성전, 시흥대로1152번길 14, 시흥시 14950			clean	KR	Hangul	canonical	way	648191529	신천성당 성전
kr-hangul-canonical-0000000798	송곡초등학교, 송곡길 112,  31450			noisy	KR	Hangul	canonical	way	651857786	송곡초등학교
kr-hangul-canonical-0000000799	백마초등학교, 일산로 230,  10417			noisy	KR	Hangul	canonical	way	655953037	백마초등학교
kr-hangul-canonical-0000000800	창의나래관, 대덕대로 481, 대전광역시 34143			clean	KR	Hangul	canonical	way	656698932	창의나래관
kr-hangul-canonical-0000000801	112동, 서울특별시			noisy	KR	Hangul	canonical	way	663489476	112동
